_id,BusinessName,RatingValue,AddressLine2,PostCode,Geocode_Longitude,Geocode_Latitude
620cd586aa28c13b79512f6f,101 Thai Kitchen,3,London,W6 0RX,-0.244311,51.493618
620cd586aa28c13b79512f75,2020 Mezza & Grill,AwaitingInspection,London,W6 9PL,-0.222939,51.488278
620cd586aa28c13b79512f78,222 Vegan Restaurant,3,London,W14 9NU,-0.202997,51.485879
620cd586aa28c13b79512f7b,24 / 7 Supermarket,3,London,W6 0QU,-0.232831,51.492834
620cd586aa28c13b79512f7e,696 Mangal,5,London,SW6 5SA,-0.206834,51.474724
620cd586aa28c13b79512f84,A B Wines,Exempt,London,W12 7JD,-0.227413,51.50589
620cd586aa28c13b79512f87,A K  Convenience Store,5,London,W12 0BS,-0.247962,51.515983
620cd586aa28c13b79512f99,AA Fisheries,1,London,W14 9PP,-0.205252,51.488612
620cd586aa28c13b79512f9c,AB Resto And Karaoke Bar,3,London,W14 8TQ,-0.2067621,51.4921602
620cd586aa28c13b79512fa5,Abu Zaad Restaurant,4,London,W12 8LH,-0.227612,51.505579
620cd586aa28c13b79512fa8,Acorn Metro,4,London,W6 0QU,-0.232831,51.492834
620cd586aa28c13b79512fab,Acropolis,5,London,W6 7PH,-0.222373,51.500599
620cd586aa28c13b79512fae,Acton Vale Working Mens Club,5,London,W12 9DS,-0.243986,51.506571
620cd586aa28c13b79512fb1,Adams Cafe,1,London,W6 7LP,-0.222311,51.497756
620cd586aa28c13b79512fb4,Adam's Cafe,5,London,W12 9AH,-0.243386,51.504197
620cd586aa28c13b79512fb7,Admiral,Exempt,London,W6 9JG,-0.230241,51.492381
620cd586aa28c13b79512fc3,Afriknfusion,AwaitingInspection,London,SW6 1NQ,-0.200933,51.483069
620cd586aa28c13b79512fc6,Age UK Hammersmith & Fulham,3,London,W6 8NJ,-0.215608,51.486045
620cd586aa28c13b79512fcc,Ahi Poke,4,London,SW6 1BY,-0.19027502043219,51.4801756909287
620cd586aa28c13b79512fd2,Ahuja Supermarket,4,London,W14 9NX,-0.203566,51.486814
620cd586aa28c13b79512fdb,Akslar News,Exempt,London,W12 0PT,-0.247495,51.514267
620cd586aa28c13b79512fde,Al Baydar,0,London,SW6 1NR,-0.200597,51.48319
620cd586aa28c13b79512fe4,Al Ghazaleen,3,London,W14 9EX,-0.206575,51.489765
620cd586aa28c13b79512fe7,Al Rostomia,AwaitingInspection,London,W12 8DH,-0.225283,51.502855
620cd586aa28c13b79512fea,Al Santo,3,London,SW6 1AX,-0.197867,51.480828
620cd586aa28c13b79512fed,Aladdin's Bread Ltd,3,London,NW10 6UG,-0.24258,51.528869
620cd586aa28c13b79512ff0,Albalou,AwaitingInspection,London,W14 9NH,-0.207093,51.491634
620cd586aa28c13b79512ff3,Albertine,3,London,W12 7DP,-0.224894,51.506545
620cd586aa28c13b79512ff6,Alborz,2,London,W14 8XJ,-0.208411,51.495845
620cd586aa28c13b79512ffc,Al-Dimashqi,5,London,W12 7JA,-0.229574,51.506246
620cd586aa28c13b79513002,Al-Ghazal,3,London,SW6 1NN,-0.201912,51.484918
620cd586aa28c13b79513005,Ali Halal Butchers,5,London,W12 8NR,-0.231368,51.506085
620cd586aa28c13b79513008,All In 1 Food & Wine,4,London,SW6 1NL,-0.202693,51.4852
620cd586aa28c13b79513011,Allans Bakery And Cafe,3,London,W12 8LR,-0.220969,51.50484
620cd586aa28c13b79513014,Alley Restaurant Chinese Cuisine,5,London,W6 9NH,-0.240879,51.493342
620cd586aa28c13b79513017,Alma Cafe Ltd,5,London,W6 0DA,-0.226199,51.493732
620cd586aa28c13b7951301a,Al-Madinah,4,London,W12 8NR,-0.231368,51.506085
620cd586aa28c13b7951301d,AlManzel,AwaitingInspection,London,W12 7LJ,-0.231579,51.506573
620cd586aa28c13b7951302f,Ameerah Restaurant Ltd,5,London,W12 7LL,-0.234083,51.506656
620cd586aa28c13b79513038,Amigos,4,London,W12 8AA,-0.223064,51.505078
620cd586aa28c13b7951303e,Amoret Speciality Coffee,5,London,W6 0EA,-0.225524,51.493299
620cd586aa28c13b79513041,Amorino Gelato,5,London,SW6 1AA,-0.196672,51.48009
620cd586aa28c13b79513044,Amuse Bouche,5,London,SW6 4JA,-0.2004752,51.4751129
620cd586aa28c13b79513047,Anarkali,1,London,W6 9NH,-0.240821,51.493341
620cd586aa28c13b7951304a,Andover Arms,5,London,W6 0DL,-0.232821,51.496836
620cd586aa28c13b7951304d,Andrew Robson Bridge Club,3,London,SW6 4HH,-0.200597,51.47623
620cd586aa28c13b79513053,Anglesea Arms,5,London,W6 0UR,-0.235942,51.499203
620cd586aa28c13b79513056,Ankaran Food & Wine,5,London,W12 0BP,-0.24808,51.516308
620cd586aa28c13b79513059,Ankh Wellbeing Centre,4,London,W12 0JJ,-0.23720200359821,51.5076217651367
620cd586aa28c13b79513068,Antipode,5,London,W6 9PH,-0.223763,51.490422
620cd586aa28c13b79513071,Appetite,5,London,W6 9JT,-0.233318,51.492536
620cd586aa28c13b79513074,Aragon House,5,London,SW6 4XG,-0.2005648,51.4724704
620cd586aa28c13b79513077,ARC Bentworth Primary Academy,5,London,W12 7AJ,-0.231859,51.515355
620cd586aa28c13b7951308f,Aromma,3,London,SW6 4NZ,-0.209166,51.469589
620cd586aa28c13b79513095,ARRO COFFEE,AwaitingInspection,London,SW6 4RD,-0.202151,51.472234
620cd586aa28c13b79513098,Arthur's Diner,5,London,SW6 2UH,-0.191737,51.471606
620cd586aa28c13b7951309b,Artisan,4,London,W6 0RX,-0.244311,51.493618
620cd586aa28c13b7951309e,Asian Grocery Suppliers,5,London,W6 8QX,-0.21954,51.484198
620cd586aa28c13b795130a1,Ask Mummy & Daddy,5,London,SW6 7PH,-0.21777899563313,51.483570098877
620cd586aa28c13b795130a4,Askew Food & Wine,5,London,W12 9BJ,-0.243803,51.503835
620cd586aa28c13b795130a7,Askewine,Exempt,London,W12 9BJ,-0.243803,51.503835
620cd586aa28c13b795130ad,Atalian Servest Catering At Elgin Close,5,London,W12 9NH,-0.235692,51.501573
620cd586aa28c13b795130b0,Atlas Food & Wine,4,London,W12 9BL,-0.243422,51.502894
620cd586aa28c13b795130b9,AUrelia,3,London,SW6 2TE,-0.191621,51.473439
620cd586aa28c13b795130cb,Autograph At Cathnor Park Childrens Centre,5,London,W12 9HY,-0.23619300127029,51.5031547546387
620cd586aa28c13b795130e0,Autograph At Melcombe School,5,London,W6 9ER,-0.221176,51.486192
620cd586aa28c13b7951311f,Ayam Zaman,5,London,W12 7JA,-0.229574,51.506246
620cd586aa28c13b79513125,Azou,5,London,W6 9NJ,-0.243717,51.493321
620cd586aa28c13b7951312b,B & Y Tropical Foods,3,London,W12 8HA,-0.22791,51.502346
620cd586aa28c13b7951312e,B And K Newsagents,5,London,W6 7DJ,-0.221029,51.493312
620cd586aa28c13b79513131,Baba G Lebanese Grill,5,London,W6 0ED,-0.225726,51.493302
620cd586aa28c13b79513137,Baba Gari Booom,5,London,W6 9PH,-0.223763,51.490422
620cd586aa28c13b7951313a,Baba Salam Cafe,3,London,W12 8NR,-0.231367,51.506084
620cd586aa28c13b79513140,Bagel Bite,3,London,W12 8PH,-0.219407,51.503881
620cd586aa28c13b79513146,Baileys,4,London,SW6 7DU,-0.20368,51.480225
620cd586aa28c13b79513149,Bakehaus,5,London,W6 9HW,-0.227717,51.492478
620cd586aa28c13b7951315b,Basilico Ltd,3,London,SW6 5SA,-0.206834,51.474724
620cd586aa28c13b7951315e,BaxterStorey,5,London,W6 7NL,-0.224266,51.495627
620cd586aa28c13b7951316d,Bayley & Sage,1,London,SW6 4ST,-0.198106,51.473314
620cd586aa28c13b79513170,Bayley & Sage,5,London,SW6 5HQ,-0.206163,51.474938
620cd586aa28c13b79513173,Baytee Halal Supermarket,AwaitingInspection,London,W12 0NS,-0.239127,51.506651
620cd586aa28c13b79513176,Be At One,5,London,W6 7AL,-0.223751,51.493336
620cd586aa28c13b7951317c,Bears Ice Cream Company,5,London,W12 9PE,-0.238096,51.500107
620cd586aa28c13b7951317f,Beck's Cafe,3,London,NW10 6RT,-0.244439,51.528529
620cd586aa28c13b79513188,"Beijing Noodles, Burrito & Tequila",4,London,SW6 2UA,-0.191103,51.468701
620cd586aa28c13b7951318b,Beirut Meza,4,London,W12 9BL,-0.243422,51.502894
620cd586aa28c13b79513191,Bella Boo's,AwaitingInspection,London,W6 9ER,-0.221176,51.486192
620cd586aa28c13b79513194,Bellillo,4,London,SW6 6BW,-0.213681,51.481906
620cd586aa28c13b79513197,Belushi's,5,London,W12 8PH,-0.219407,51.503881
620cd586aa28c13b7951319a,Belushi's And St Christopher's,5,London,W6 7AB,-0.224573,51.493303
620cd586aa28c13b795131ac,Bertotti,5,London,W12 8HD,-0.229361,51.502071
620cd586aa28c13b795131af,Bertotti Pure Italian,5,London,W6 0NQ,-0.227659,51.497693
620cd586aa28c13b795131b2,Best Am 2 Pm,3,London,W14 9EX,-0.206575,51.489765
620cd586aa28c13b795131b5,Best Mangal,3,London,W14 9EX,-0.206575,51.489765
620cd586aa28c13b795131b8,Best Mangal 2,1,London,W14 9EP,-0.207355,51.49118
620cd586aa28c13b795131bb,Best One,AwaitingInspection,London,W6 9PH,-0.223763,51.490422
620cd586aa28c13b795131be,Best One (Post Office),4,London,SW6 2UA,-0.191103,51.468701
620cd586aa28c13b795131c1,Best Quality Food & Wine,4,London,SW6 7NR,-0.214262,51.482517
620cd586aa28c13b795131c4,Best Wines,5,London,W6 7PB,-0.222856,51.497827
620cd586aa28c13b795131c7,Betty Blythe,5,London,W14 0HP,-0.217918,51.497725
620cd586aa28c13b795131ca,Big Ben Fisheries,3,London,SW6 1NR,-0.200597,51.483189
620cd586aa28c13b795131d9,Bird In Hand,5,London,W14 0LR,-0.215685,51.499939
620cd586aa28c13b795131dc,Biryani Pot,5,London,W6 9PL,-0.222939,51.488278
620cd586aa28c13b795131e2,Bishops Stores,3,London,SW6 4RJ,-0.206571,51.471141
620cd586aa28c13b795131f1,Blenheim Chalcot@The Hive,5,London,W6 9DL,-0.224571,51.492241
620cd586aa28c13b795131f4,Bloom Cafe,0,London,SW6 6TA,-0.213624,51.47454
620cd586aa28c13b795131fa,Blue Anchor,5,London,W6 9DJ,-0.231434,51.489855
620cd586aa28c13b7951320f,Bobata,5,London,W12 0LW,-0.2416727,51.5080931
620cd586aa28c13b79513212,Bocadillos Station,AwaitingInspection,London,SW6 2QA,-0.185623,51.473652
620cd586aa28c13b79513215,Bocconi Ltd,AwaitingInspection,London,W12 8QQ,-0.224466,51.502725
620cd586aa28c13b79513221,Bombay Chow,AwaitingInspection,London,W6 0RA,-0.235774,51.493094
620cd586aa28c13b79513224,Bon Appetit Canteen,5,London,W12 7RQ,-0.2222536,51.512
620cd586aa28c13b79513227,Bonbon,4,London,SW6 2TT,-0.191113,51.471372
620cd586aa28c13b7951322a,Bonbon,4,London,SW6 3BU,-0.196882,51.47075
620cd586aa28c13b7951322d,Bonjour Brioche,4,London,W14 9NL,-0.206219,51.490038
620cd586aa28c13b79513236,Boots UK Ltd,5,London,W6 9HW,-0.227717,51.492478
620cd586aa28c13b79513242,Bottle Shop,5,London,SW6 4RD,-0.2018976,51.472266
620cd586aa28c13b79513245,Bowmans News,3,London,W14 9NX,-0.203566,51.486814
620cd586aa28c13b79513248,Boys'n'Berry,3,London,SW6 5HQ,-0.206163,51.474939
620cd586aa28c13b79513254,Brackenbury Food & Wine,5,London,W6 0BQ,-0.231324,51.497883
620cd586aa28c13b79513257,Brackenbury Wine Rooms,5,London,W6 0NQ,-0.227659,51.497693
620cd586aa28c13b7951325a,Brandini,AwaitingInspection,London,W12 0RF,-0.2411352,51.5149374
620cd586aa28c13b79513263,Breast Cancer Haven London,5,London,W14 9DA,-0.214191,51.490591
620cd586aa28c13b79513266,BrewDog Shepherds Bush,5,London,W12 8QQ,-0.224466,51.502725
620cd586aa28c13b79513269,Bridge Baker,4,London,SW6 2UL,-0.1920317,51.4726899
620cd586aa28c13b7951326c,Bridge That Gap,3,London,W12 9AS,-0.243035,51.503194
620cd586aa28c13b7951326f,Bridges,5,London,W6 0QA,-0.225676,51.493086
620cd586aa28c13b79513272,Bright Horizons Fulham Day Nursery And Pre-School,5,London,SW6 2QB,-0.187035,51.47362
620cd586aa28c13b79513275,Broadway Bar And Grill,4,London,SW6 1BY,-0.194966,51.480612
620cd586aa28c13b79513278,Broadway Food And Wine,5,London,SW6 1AE,-0.195974,51.480268
620cd586aa28c13b7951327b,Brompton Supermarket,2,London,SW6 1RR,-0.196628,51.486699
620cd586aa28c13b7951327e,Brook Green Hotel,5,London,W6 7PB,-0.222855,51.497827
620cd586aa28c13b79513281,Brook Green Kindergarten,3,London,W6 7BE,-0.21883,51.496138
620cd586aa28c13b79513284,Brook Green Nursery,5,London,W6 7BJ,-0.216727,51.495405
620cd586aa28c13b79513287,Brook Hotel,5,London,W6 0XL,-0.247211,51.498005
620cd586aa28c13b7951328a,Brook House,AwaitingInspection,London,SW6 4SG,-0.193315,51.475767
620cd586aa28c13b7951328d,Brooklyn Pizza Crew,5,London,SW6 5PZ,-0.200176,51.478507
620cd586aa28c13b79513293,Brown Cafe,2,London,W6 7PB,-0.222856,51.497827
620cd586aa28c13b7951329c,Builders Canteen,AwaitingInspection,London,SW6 2AN,-0.18503500521183,51.4766464233398
620cd586aa28c13b795132a2,Burgers Off Broadway,5,London,W6 8NX,-0.218516,51.484983
620cd586aa28c13b795132a8,Bury Food And Wine,5,London,W6 9ER,-0.2212823,51.4866261
620cd586aa28c13b795132ae,Bush Hall Dining Ltd,5,London,W12 7LJ,-0.231579,51.506574
620cd586aa28c13b795132b1,Bush Theatre,4,London,W12 8LJ,-0.225524,51.505169
620cd586aa28c13b795132b4,Bushwacker,5,London,W6 0QU,-0.232831,51.492834
620cd586aa28c13b795132b7,Busy Bees,5,London,SW6 7JF,-0.208769,51.476804
620cd586aa28c13b795132bd,Butchies,5,London,SW6 1BY,-0.19027502043219,51.4801756909287
620cd586aa28c13b795132c0,Bute House Preparatory School,5,London,W6 7EA,-0.221339,51.495331
620cd586aa28c13b795132c6,BYGRAM,5,London,SW6 5HD,-0.204678,51.476094
620cd586aa28c13b795132d5,Cafe,3,London,W12 7DA,-0.2346,51.511556
620cd586aa28c13b795132db,Cafe 209 (Thai),5,London,SW6 6BX,-0.211988,51.479542
620cd586aa28c13b795132e1,Cafe At West Six Garden Centre,5,London,W6 0SL,-0.2376053,51.4942425
620cd586aa28c13b795132e4,Cafe Barca,AwaitingInspection,London,W6 8JA,-0.22266,51.488796
620cd586aa28c13b795132e7,Cafe Brazil,5,London,SW6 1HH,-0.19155,51.479984
620cd586aa28c13b795132ea,Cafe Cino,4,London,W6 0RF,-0.237457,51.493533
620cd586aa28c13b795132ed,Cafe Continente,2,London,W14 9EP,-0.207355,51.49118
620cd586aa28c13b795132f3,Cafe Del Mundo,4,London,W14 8XJ,-0.208411,51.495845
620cd586aa28c13b795132f6,Cafe Delight,5,London,W14 9PP,-0.205252,51.488612
620cd586aa28c13b795132f9,Cafe Disney,5,London,W6 9PE,-0.222707,51.491647
620cd586aa28c13b795132fc,Cafe Latte,5,London,W12 8LH,-0.227612,51.505579
620cd586aa28c13b795132ff,Cafe Lina,3,London,SW6 2SG,-0.186139,51.469334
620cd586aa28c13b79513302,Cafe Louche,5,London,W12 9AU,-0.242337,51.502239
620cd586aa28c13b7951330b,Cafe Ole,2,London,SW6 1QP,-0.197846,51.482446
620cd586aa28c13b7951330e,Cafe Paradiso,3,London,W14 0QL,-0.213799,51.494003
620cd586aa28c13b79513311,Cafe Plum,5,London,W6 9RL,-0.227115,51.488692
620cd586aa28c13b7951331a,Caffe Bonego,5,London,W12 8HJ,-0.232744,51.501412
620cd586aa28c13b79513329,Caffe Lambro Ltd,5,London,W12 0AA,-0.24441500008106,51.5164070129395
620cd586aa28c13b7951332c,Caffe Latte 200,3,London,W12 7JP,-0.225527,51.505475
620cd586aa28c13b7951332f,Caffe Nero,5,London,SW6 2UL,-0.191818,51.472471
620cd586aa28c13b79513332,Caffe Nero,5,London,SW6 5NH,-0.198429,51.48045
620cd586aa28c13b7951333e,Caffe Nero (store No 398),5,London,W6 7AL,-0.223751,51.493336
620cd586aa28c13b79513341,CAKE ADDICT,AwaitingInspection,London,SW6 1NR,-0.200597,51.483189
620cd586aa28c13b79513356,Cambus Lodge,5,London,SW6 2TT,-0.191113,51.471372
620cd586aa28c13b79513359,Camden Coffee House,4,London,W12 8EG,-0.227416,51.502086
620cd586aa28c13b7951335f,Capital Restaurant,3,London,W6 7AB,-0.224573,51.493303
620cd586aa28c13b79513365,Carbon Kopi,4,London,W6 8LS,-0.2148371,51.4864292
620cd586aa28c13b7951336e,Carpenter's Arms,5,London,W6 9BG,-0.242719,51.492326
620cd586aa28c13b79513371,Casa Bardotti West Kensington,3,London,W14 9JL,-0.206315,51.489068
620cd586aa28c13b79513374,Casa Mia,3,London,W6 9JT,-0.233318,51.492536
620cd586aa28c13b79513377,Cashcounts,5,London,SW6 5UA,-0.197502,51.480238
620cd586aa28c13b7951337a,Cashino Gaming,5,London,W6 0QW,-0.2297681,51.4928409
620cd586aa28c13b7951339e,Centro Galego De Londres,4,London,NW10 5NG,-0.236644,51.532143
620cd586aa28c13b795133a1,C'est Ici,3,London,W14 9EB,-0.212908,51.489169
620cd586aa28c13b795133a7,Ch & Co Catering At Fulham Prep School,2,London,W14 9RY,-0.211236,51.495067
620cd586aa28c13b795133ad,Chairs & Coffee,5,London,SW6 5NJ,-0.19922,51.479751
620cd586aa28c13b795133b0,Chanteroy,3,London,SW6 2UH,-0.191737,51.471606
620cd586aa28c13b795133c5,Chelsea Caribbean Kitchen,5,London,SW6 2DH,-0.19389599561691,51.4800109863281
620cd586aa28c13b795133cb,Chelsea Farm,AwaitingInspection,London,SW6 1NS,-0.2001298,51.4827962
620cd586aa28c13b795133d4,Chelsea Village Store,5,London,SW6 1HL,-0.188741,51.480345
620cd586aa28c13b795133d7,Cherry On Top,5,London,SW6 5UQ,-0.198393,51.479901
620cd586aa28c13b795133da,Chez Abir,5,London,W14 0HA,-0.213128,51.497176
620cd586aa28c13b795133e3,Chicago Grill,5,London,W6 9PH,-0.223763,51.490422
620cd586aa28c13b795133e6,Chicago Grill,5,London,W12 8NR,-0.231368,51.506085
620cd586aa28c13b795133e9,Chicken Corner,5,London,W12 0BS,-0.247962,51.515983
620cd586aa28c13b795133ec,Chicken Cottage,4,London,W12 8AA,-0.223064,51.505078
620cd586aa28c13b795133ef,Chicken Cottage,4,London,SW6 1NJ,-0.2018378,51.4840454
620cd586aa28c13b795133f2,Chicken Cottage,3,London,W12 7JA,-0.229575,51.506247
620cd586aa28c13b795133f5,Chicken Cottage,5,London,W14 9ES,-0.207061,51.4906
620cd586aa28c13b795133f8,Chicken Cottage,4,London,W3 7DA,-0.248821,51.514638
620cd586aa28c13b795133fb,Chicken Kitchen,5,London,W12 8HD,-0.229318,51.502088
620cd586aa28c13b795133fe,Chicken Shack,AwaitingInspection,London,W14 8TQ,-0.206913,51.492171
620cd586aa28c13b79513401,Chicken Valley,3,London,W12 7JD,-0.227413,51.50589
620cd586aa28c13b79513404,Chika's Food,5,London,NW10 6UG,-0.2417214,51.5288937
620cd586aa28c13b79513407,Chillies,1,London,W6 0BQ,-0.231325,51.497883
620cd586aa28c13b7951340a,China Wok,5,London,SW6 1NH,-0.201264,51.483442
620cd586aa28c13b79513410,Chinese Church In London,5,London,W6 7BE,-0.21883,51.496138
620cd586aa28c13b79513413,Chipsy Ltd,5,London,W12 7RW,-0.2287013,51.511188
620cd586aa28c13b79513419,Chop Chop Noodle Bar,5,London,W12 8LP,-0.219696,51.504596
620cd586aa28c13b7951341f,Chosen Bun,5,London,SW6 5PU,-0.198973,51.479442
620cd586aa28c13b7951342b,City News,5,London,W14 0AS,-0.217264,51.501564
620cd586aa28c13b7951342e,City Newsagents,Exempt,London,W12 7JD,-0.227413,51.50589
620cd586aa28c13b79513431,City Supermarket,4,London,W12 7PA,-0.226725,51.512103
620cd586aa28c13b79513437,Clip 'N Climb Chelsea,5,London,SW6 2ER,-0.189491,51.477416
620cd586aa28c13b7951343a,Cock Tavern,4,London,SW6 1LY,-0.199449,51.481266
620cd586aa28c13b79513443,Cocotte,AwaitingInspection,London,SW6 4RD,-0.202151,51.472234
620cd586aa28c13b79513446,Coffee Station,4,London,W6 9JT,-0.233318,51.492535
620cd586aa28c13b79513449,Coffee Underground,3,London,W14 9NL,-0.206219,51.490038
620cd586aa28c13b7951344c,Coffeeology,5,London,W6 0RR,-0.241735,51.4937508
620cd586aa28c13b7951344f,COFX,5,London,W6 9NT,-0.220147,51.484154
620cd586aa28c13b79513458,Comfotel Prpl Hotel,4,London,W6 7LU,-0.221715,51.500831
620cd586aa28c13b79513464,Coningham Arms,5,London,W12 9RA,-0.238236,51.506224
620cd586aa28c13b79513467,Convivium,4,London,SW6 6BX,-0.211988,51.479542
620cd586aa28c13b7951346a,Cook,5,London,SW6 5HJ,-0.20651,51.474531
620cd586aa28c13b79513476,Co-op,5,London,W12 9BL,-0.243448,51.502939
620cd586aa28c13b79513479,Co-op,5,London,W12 9RA,-0.238236,51.506224
620cd586aa28c13b7951347c,Co-op,5,London,SW6 6BT,-0.212572,51.480441
620cd586aa28c13b7951347f,Co-op,5,London,SW6 1NJ,-0.201845,51.484063
620cd586aa28c13b79513482,Co-op,5,London,W12 9PE,-0.238096,51.500107
620cd586aa28c13b79513485,Co-op,5,London,SW6 4HU,-0.200981,51.474886
620cd586aa28c13b79513488,Co-op,5,London,NW10 5NY,-0.2320204,51.5314547
620cd586aa28c13b7951348b,Co-op,5,London,W14 9EY,-0.211236,51.495067
620cd586aa28c13b79513497,Costa Coffee,5,London,W12 9BL,-0.243448,51.502939
620cd586aa28c13b7951349a,Costa Coffee,5,London,W6 7PB,-0.222855,51.497827
620cd586aa28c13b795134a0,Costa Coffee,4,London,W12 8QP,-0.225661,51.502393
620cd586aa28c13b795134a3,Costa Coffee,5,London,W12 8LP,-0.219696,51.504596
620cd586aa28c13b795134a6,Costa Coffee,5,London,W14 9EX,-0.206575,51.489765
620cd586aa28c13b795134b2,Costcutter Express,5,London,SW6 6SX,-0.212734,51.473726
620cd586aa28c13b795134b5,Cote Brasserie,5,London,SW6 1PP,-0.19626800715923,51.4819374084473
620cd586aa28c13b795134b8,Cote Brasserie,4,London,SW6 4HH,-0.200597,51.47623
620cd586aa28c13b795134bb,Cozco Latte,5,London,W6 8JA,-0.22266,51.488796
620cd586aa28c13b795134c1,Crazy For Pasta,3,London,SW6 1NN,-0.201912,51.484918
620cd586aa28c13b795134c4,Creams,5,London,W6 9HW,-0.22783200442791,51.4924697875977
620cd586aa28c13b795134c7,Creams Cafe,5,London,W12 7JP,-0.2256921,51.5054785
620cd586aa28c13b795134cd,Credit Munch Cafe,5,London,W6 0QU,-0.232831,51.492834
620cd586aa28c13b795134dc,Crispy Plus Chicken Takeaway,5,London,W12 7JA,-0.2286789,51.5061171
620cd586aa28c13b795134f1,Crystal China Express,5,London,W14 9NX,-0.203566,51.486814
620cd586aa28c13b795134f7,Cumberland Park Stores,5,London,NW10 6RA,-0.237283,51.529797
620cd586aa28c13b79513506,Dacha,4,London,SW6 5PU,-0.198973,51.479442
620cd586aa28c13b79513509,Damas Gate,4,London,W12 8NR,-0.231368,51.506085
620cd586aa28c13b7951350c,Damascene Bakery,5,London,W12 7JA,-0.229574,51.506246
620cd586aa28c13b7951350f,Dance Attic Cafe,5,London,SW6 1LY,-0.199449,51.481266
620cd586aa28c13b79513512,Danish Patisserie,2,London,SW6 5RA,-0.208972,51.476403
620cd586aa28c13b7951351e,Deepak Food & Wine,5,London,W6 0NQ,-0.227659,51.497693
620cd586aa28c13b79513521,Defectors Weld,5,London,W12 8AA,-0.223064,51.505078
620cd586aa28c13b7951352a,Delicious,3,London,SW6 3JJ,-0.209974,51.469925
620cd586aa28c13b79513530,Delight Kebab,3,London,W12 9AS,-0.243035,51.503194
620cd586aa28c13b7951353c,Dessert Heaven London,2,London,SW6 1NN,-0.201725,51.4847181
620cd586aa28c13b7951353f,Detour Cafe,2,London,W12 9AU,-0.242337,51.502239
620cd586aa28c13b79513542,Dickenson Quality Meat,5,London,SW6 1NW,-0.201379,51.484191
620cd586aa28c13b7951354e,District,4,London,SW6 4HU,-0.20098100602627,51.4748878479004
620cd586aa28c13b79513551,Divina Caffe,4,London,W6 9NJ,-0.243717,51.493321
620cd586aa28c13b79513557,DM News Ltd,5,London,W12 8EG,-0.227416,51.502087
620cd586aa28c13b7951355a,DNA Juice,AwaitingInspection,London,SW6 1NN,-0.201912,51.484918
620cd587aa28c13b79513560,Doctor Espresso N 3,5,London,SW6 3LQ,-0.211324,51.471106
620cd587aa28c13b79513566,Domino's Pizza,5,London,W12 7JA,-0.229575,51.506247
620cd587aa28c13b79513569,Domino's Pizza,5,London,SW6 2TZ,-0.19027,51.467186
620cd587aa28c13b7951356c,Domino's Pizza,5,London,SW6 5UQ,-0.198393,51.479901
620cd587aa28c13b7951356f,Don 2,2,London,SW6 1PP,-0.196268,51.481936
620cd587aa28c13b79513578,Doorsteps Sandwich Bar,5,London,W6 0ND,-0.22634,51.493815
620cd587aa28c13b7951357b,Dorsett Hotel,5,London,W12 8QE,-0.224843,51.50453
620cd587aa28c13b7951357e,DoubleTree By Hilton London Chelsea,5,London,SW6 2GA,-0.183747,51.474468
620cd587aa28c13b79513581,Dough And So Bakery,3,London,W12 8AA,-0.223064,51.505078
620cd587aa28c13b79513584,Doughlicious Ltd,5,London,NW10 6UG,-0.242194,51.528604
620cd587aa28c13b79513587,Dr Waked's,5,London,W6 9NH,-0.24087899923325,51.4933433532715
620cd587aa28c13b79513590,Drink Of Fulham,4,London,SW6 6TB,-0.214318,51.475189
620cd587aa28c13b79513593,Du Cane Stores,5,London,W12 0BJ,-0.246669,51.515523
620cd587aa28c13b79513596,Duchess Nursery,3,London,SW6 5PZ,-0.200176,51.478507
620cd587aa28c13b79513599,Duke Of Cornwall,5,London,W6 9PH,-0.223763,51.490422
620cd587aa28c13b7951359c,Duke On The Green,5,London,SW6 4XG,-0.199935,51.472577
620cd587aa28c13b795135a2,Duman Doner,4,London,SW6 1NZ,-0.198758,51.480509
620cd587aa28c13b795135a5,Dutch Kebab House,AwaitingInspection,London,W12 7LL,-0.234083,51.506656
620cd587aa28c13b795135a8,East Ocean,1,London,W14 9NX,-0.203566,51.486814
620cd587aa28c13b795135ae,Eat Aroi Thai Street Food,2,London,W14 9EX,-0.206575,51.489765
620cd587aa28c13b795135b1,Eat Beirut,5,London,SW6 4SW,-0.196775,51.473464
620cd587aa28c13b795135ba,Eat Of Eden,AwaitingInspection,London,W6 7PH,-0.222373,51.500599
620cd587aa28c13b795135bd,Eat Tokyo,5,London,W6 9JT,-0.233318,51.492536
620cd587aa28c13b795135c6,Eatery Cafe,4,London,W6 0RX,-0.244311,51.493618
620cd587aa28c13b795135cc,Ecole Française De Londres Jacques Prévert,4,London,W6 7BE,-0.21883,51.496138
620cd587aa28c13b795135cf,Eden Cafe,3,London,W14 9NX,-0.203566,51.486814
620cd587aa28c13b795135d2,Egg & Bun,4,London,W6 7JP,-0.218329,51.49346
620cd587aa28c13b795135d5,Eight Bells,4,London,SW6 3JS,-0.210104,51.468066
620cd587aa28c13b795135db,El Metro,5,London,SW6 1TB,-0.196114,51.479272
620cd587aa28c13b795135de,Eleusis Club,5,London,SW6 2DU,-0.189939,51.478098
620cd587aa28c13b795135e7,Ella's Place,AwaitingInspection,London,SW6 4RF,-0.2035193,51.4720301
620cd587aa28c13b795135ed,Emilia's Delicatessen,3,London,SW6 4LU,-0.202824,51.472343
620cd587aa28c13b795135f6,Esarn Kheaw Thai Restaurant,4,London,W12 7LJ,-0.231579,51.506574
620cd587aa28c13b795135f9,Escondidinho Coffee Shop,4,London,W14 9NX,-0.203566,51.486814
620cd587aa28c13b795135fc,Eshta,0,London,W12 8EN,-0.231422,51.50132
620cd587aa28c13b795135ff,Espress-Mo,5,London,W14 8UZ,-0.210785,51.49517
620cd587aa28c13b79513614,Eyeconn Coffee Shop,3,London,W12 8DH,-0.225283,51.502855
620cd587aa28c13b79513617,Fairway Foods,4,London,W6 7PJ,-0.222765,51.502016
620cd587aa28c13b7951361d,Family Supermarket,5,London,SW6 1NJ,-0.201844,51.484063
620cd587aa28c13b79513623,Fanny's Kebabs,5,London,SW6 1BY,-0.19027502043219,51.4801756909287
620cd587aa28c13b79513626,Farina & More,5,London,W6 7PB,-0.222856,51.497827
620cd587aa28c13b79513629,Farm Lane Nursing Home,5,London,SW6 1PX,-0.196513,51.482281
620cd587aa28c13b7951363b,Fine Foods,4,London,W14 0PR,-0.212346,51.49764
620cd587aa28c13b79513644,Fish And Chic (Murhan Ltd),5,London,W12 0HL,-0.227105,51.516388
620cd587aa28c13b79513647,Fish And Grill London,3,London,W12 7PA,-0.226725,51.512103
620cd587aa28c13b7951364a,Fishermans Hut,4,London,W12 7JD,-0.227413,51.50589
620cd587aa28c13b7951364d,Fishers Fish & Chips,4,London,SW6 3JH,-0.210712,51.470944
620cd587aa28c13b79513650,FISHER'S KITCHEN,AwaitingInspection,London,SW6 2TF,-0.19224,51.473457
620cd587aa28c13b7951365c,Flamingo,3,London,W12 8QQ,-0.224466,51.502725
620cd587aa28c13b7951365f,Flavourtown Bakery,5,London,SW6 5HA,-0.203928,51.476469
620cd587aa28c13b79513668,Flyover Filling Station,5,London,W6 8BJ,-0.220133,51.490799
620cd587aa28c13b7951366b,FM Bar And Restaurant,3,London,W12 7JP,-0.225527,51.505475
620cd587aa28c13b7951366e,Food And Fire,3,London,W12 7LJ,-0.231579,51.506574
620cd587aa28c13b79513674,Foodbank,AwaitingInspection,London,SW6 1TS,-0.197665,51.486868
620cd587aa28c13b79513680,Football Radar,5,London,W14 0RN,-0.211635,51.494087
620cd587aa28c13b79513683,Fortune Restaurant,2,London,W14 9AE,-0.206822,51.49118
620cd587aa28c13b79513686,Foubert's,5,London,SW6 1AY,-0.1990612,51.481404
620cd587aa28c13b79513689,FOXDEN,AwaitingInspection,London,SW6 1BH,-0.198496,51.480586
620cd587aa28c13b7951369b,Franks Sandwich Bar,5,London,W14 8XP,-0.205621,51.494633
620cd587aa28c13b795136a7,Fresh Gourmet Pizza,5,London,W14 9NH,-0.207093,51.491634
620cd587aa28c13b795136aa,Freshco (Londis),4,London,SW6 2TS,-0.191419,51.472734
620cd587aa28c13b795136b0,Friends,4,London,W12 7JA,-0.229575,51.506247
620cd587aa28c13b795136b3,Fuel @ Elephant West,5,London,W12 7RH,-0.224644,51.512242
620cd587aa28c13b795136b9,Fulham Cross Cafe,4,London,SW6 6BH,-0.213409,51.482253
620cd587aa28c13b795136bf,Fulham Food And Wine,4,London,SW6 3LQ,-0.211324,51.471106
620cd587aa28c13b795136c2,Fulham Food Convenience Store,3,London,SW6 5PZ,-0.200176,51.478507
620cd587aa28c13b795136c5,Fulham Football Club,5,London,SW6 6HH,-0.220607,51.474539
620cd587aa28c13b795136c8,Fulham Fried Chicken,5,London,SW6 5NH,-0.198429,51.48045
620cd587aa28c13b795136cb,Fulham Good Neighbours,5,London,SW6 7QT,-0.210535,51.48059
620cd587aa28c13b795136ce,Fulham Greens,5,London,SW6 4RB,-0.201283,51.472355
620cd587aa28c13b795136d1,Fulham House Cafe,5,London,SW6 5SH,-0.209634,51.472726
620cd587aa28c13b795136d4,Fulham Kitchen,5,London,SW6 6AZ,-0.211556,51.479554
620cd587aa28c13b795136da,Fulham Palace Wine,Exempt,London,W6 9PL,-0.222939,51.488278
620cd587aa28c13b795136dd,Fulham Pre-School & Day Nursery,4,London,SW6 4EH,-0.20456999540329,51.4740791320801
620cd587aa28c13b795136e3,Fulham Quality Fish,3,London,SW6 1NW,-0.201379,51.484191
620cd587aa28c13b795136e9,Full Steam Espresso,5,London,W6 7AP,-0.225619,51.4940118
620cd587aa28c13b795142b3,The Rose,5,London,SW6 2AF,-0.189864,51.476712
620cd587aa28c13b795142b6,The Rutland,5,London,W6 9DJ,-0.23143400251865,51.4898529052734
620cd587aa28c13b795142b9,The Rylston,5,London,SW6 7LW,-0.207778,51.483695
620cd587aa28c13b795142bc,The Salutation,3,London,W6 0QU,-0.232831,51.492834
620cd587aa28c13b795142bf,The Sands End,5,London,SW6 2PR,-0.187083,51.472388
620cd587aa28c13b795142d1,The Studio Day Nursery,5,London,SW6 2DA,-0.19347,51.478755
620cd587aa28c13b795142d4,The Swan,5,London,W6 0DZ,-0.225098,51.493131
620cd587aa28c13b795142d7,The Temperance,5,London,SW6 3LF,-0.210395,51.469473
620cd587aa28c13b795142e9,The Village Bakery,5,London,W14 0HP,-0.217918,51.497725
620cd587aa28c13b795142ec,The Vintage Scoop,4,London,SW6 1LY,-0.1992415,51.4808492
620cd587aa28c13b795142f2,The Wellington,4,London,SW6 7EU,-0.202228,51.482747
620cd587aa28c13b795142f8,The William Morris,5,London,W6 0QA,-0.225676,51.493085
620cd587aa28c13b795142fe,The Wine Shop,Exempt,London,W14 0AS,-0.217264,51.501564
620cd587aa28c13b79514301,The Worx,4,London,SW6 4TJ,-0.202681,51.473771
620cd587aa28c13b7951430d,Thomas's Day School,5,London,SW6 3ES,-0.193113,51.467032
620cd587aa28c13b79514313,Threshers,Exempt,London,W14 0HB,-0.216041,51.497463
620cd587aa28c13b7951431c,Tian Fu,5,London,W12 8AR,-0.224314,51.505529
620cd587aa28c13b7951431f,Tinto Coffee,3,London,SW6 6SX,-0.212734,51.473726
620cd587aa28c13b79514322,Tipaza 2 Supermarket,4,London,SW6 1NY,-0.199491,51.482022
620cd587aa28c13b79514325,Tipsy Toad,5,London,W6 0NQ,-0.227659,51.497693
620cd587aa28c13b7951432e,Today's Express,3,London,SW6 1TL,-0.2021302,51.4857675
620cd587aa28c13b79514334,Tong Kanom Thai,4,London,NW10 5NH,-0.235064,51.532362
620cd587aa28c13b79514337,Top Choice,5,London,W6 0RX,-0.244311,51.493618
620cd587aa28c13b7951433d,Tops Pizza,4,London,W6 9PL,-0.222939,51.488278
620cd587aa28c13b79514340,Toro Dorado,3,London,W14 0QH,-0.21206,51.494642
620cd587aa28c13b79514343,Toro Gordo,4,London,W6 9JG,-0.230327,51.492392
620cd587aa28c13b79514346,Tortilla,5,London,W6 0QA,-0.225676,51.493086
620cd587aa28c13b7951434c,Tosa Japanese Restaurant,4,London,W6 0RR,-0.242277,51.493705
620cd587aa28c13b79514352,Transition Zone,5,London,SW6 4TJ,-0.202681,51.473771
620cd587aa28c13b79514355,Travelodge London Fulham Hotel,5,London,SW6 1NQ,-0.200933,51.483069
620cd587aa28c13b79514358,Treasure Beach Grill,5,London,W14 9JL,-0.206378,51.489276
620cd587aa28c13b7951435b,Truth,3,London,W6 9PH,-0.223763,51.490422
620cd587aa28c13b79514367,Universal Liquor Mart,5,London,W6 9NT,-0.220147,51.484154
620cd587aa28c13b7951436a,UR Supermarket,5,London,SW6 1NJ,-0.201845,51.484063
620cd587aa28c13b79514370,V V Cafe,5,London,SW6 6BS,-0.212872,51.480869
620cd587aa28c13b79514373,V V Coffee Bar,5,London,SW6 4NZ,-0.209166,51.469589
620cd587aa28c13b79514376,Vagabond Wines,5,London,SW6 1AX,-0.197867,51.480828
620cd587aa28c13b79514379,Vardar,4,London,W12 9AH,-0.243386,51.504197
620cd587aa28c13b7951437f,Vegane,5,London,SW6 7SR,-0.203161,51.485378
620cd587aa28c13b79514385,Vicino,5,London,SW6 4SW,-0.196775,51.473464
620cd587aa28c13b79514388,Village Restaurant,3,London,W6 8JA,-0.22266,51.488796
620cd587aa28c13b79514391,Vine Leaves Taverna,2,London,W12 8NR,-0.231368,51.506085
620cd587aa28c13b7951439d,W6 Express,4,London,W6 0RA,-0.235774,51.493094
620cd587aa28c13b795143a3,Wafflepop,5,London,SW6 1NH,-0.2012429,51.4834248
620cd587aa28c13b795143b2,Waitrose,5,London,SW6 1LU,-0.199037,51.480018
620cd587aa28c13b795143bb,"Walts Wellness, LTD",AwaitingInspection,London,SW6 1QR,-0.197656,51.482164
620cd587aa28c13b795143cd,Weizi Prawn Hot Pot,2,London,W14 0HJ,-0.221685,51.49977
620cd587aa28c13b795143d0,Wenzels The Bakers Ltd,5,London,W12 8LP,-0.21976700425148,51.5046234130859
620cd587aa28c13b795143d3,West 9 Food And Wine,4,London,SW6 4HS,-0.201143,51.476265
620cd587aa28c13b795143d9,Westside Coffee,4,London,W12 8NR,-0.2319804,51.506077
620cd587aa28c13b795143e8,White Horse,5,London,SW6 4UL,-0.199153,51.473788
620cd587aa28c13b795143ee,Whole Foods Market,5,London,SW6 1AA,-0.196672,51.48009
620cd587aa28c13b795143f4,Wild Thyme,5,London,W12 0PQ,-0.238734,51.508237
620cd587aa28c13b79514403,Wine Express,Exempt,London,W12 8HH,-0.230597,51.501802
620cd587aa28c13b79514406,Wine Mart,4,London,W12 7JA,-0.2299558,51.5062623
620cd587aa28c13b79514409,Wing Jam,2,London,W14 9NU,-0.202997,51.485879
620cd587aa28c13b7951440c,Wing Wing Ltd,5,London,W6 7AB,-0.224573,51.493303
620cd587aa28c13b7951441b,WP Fish And Chips,3,London,W6 0SP,-0.239598,51.493682
620cd587aa28c13b7951441e,Wraps & Wings And WICKED,AwaitingInspection,London,W14 0PP,-0.212189,51.497224
620cd587aa28c13b79514421,Xalwo Banaadir,AwaitingInspection,London,W12 7LJ,-0.2324375,51.5065515
620cd587aa28c13b79514424,XD Chinese Medical,Exempt,London,W12 8AA,-0.223064,51.505078
620cd587aa28c13b7951442a,Yamal Alsham,4,London,SW6 2UB,-0.182285,51.473204
620cd587aa28c13b79514436,YO! To Go,4,London,W6 7NL,-0.224267,51.495627
620cd587aa28c13b7951443c,Yogi Smurti,Exempt,London,W12 8AA,-0.223064,51.505078
620cd587aa28c13b7951443f,Yogi Stores,5,London,W14 0AS,-0.217264,51.501564
620cd587aa28c13b79514445,Yoshi Sushi,3,London,W6 0RA,-0.235774,51.493094
620cd587aa28c13b7951444e,Yucca,5,London,SW6 5NH,-0.198429,51.48045
620cd587aa28c13b79514451,Yummy Zone Chinese Takeaway,5,London,SW6 7PA,-0.215273,51.482812
620cd587aa28c13b79514454,Yumy,AwaitingInspection,London,W14 0PP,-0.212189,51.497224
620cd587aa28c13b7951445a,Zahara Supermarket,3,London,W3 7DA,-0.248821,51.514638
620cd587aa28c13b7951445d,Zahra Grill,4,London,W14 9EX,-0.206554,51.489756
620cd587aa28c13b79514460,Zarathustra Cafe,3,London,W14 0AS,-0.217264,51.501564
620cd587aa28c13b79514469,Zeit And Zaatar,5,London,W12 7LL,-0.234083,51.506656
620cd587aa28c13b7951446c,Zia Lucia,3,London,W14 0HP,-0.217918,51.497725
620cd587aa28c13b7951446f,Zicaffe,3,London,W12 7JP,-0.225527,51.505475
620cd587aa28c13b79514475,Zippy Diner,4,London,W12 8DH,-0.225283,51.502855
620cd587aa28c13b7951447e,Zyrus Food Limited,AwaitingInspection,London,SW6 1NN,-0.201911,51.484918
620cd587aa28c13b795136ef,Furnivall Sculling Club,5,London,W6 9DJ,-0.231434,51.489855
620cd587aa28c13b795136f5,Gail's Bakery,5,London,W6 7PD,-0.222468,51.499269
620cd587aa28c13b795136f8,Gail's Bakery,5,London,SW6 5UL,-0.2024985,51.4767626
620cd587aa28c13b79513704,Gather & Gather,5,London,W12 7FA,-0.2253177,51.5110801
620cd587aa28c13b79513707,Gelato Mio,1,London,SW6 6SU,-0.211657,51.47255
620cd587aa28c13b7951370a,Genji Sushi,5,London,SW6 1AA,-0.196672,51.48009
620cd587aa28c13b7951370d,Georges Cafe,5,London,W14 0HA,-0.213128,51.497176
620cd587aa28c13b79513710,German Doner Kebab,5,London,W12 7JD,-0.2273058,51.5058536
620cd587aa28c13b79513713,German Doner Kebab,4,London,SW6 1AA,-0.196672,51.48009
620cd587aa28c13b79513719,Giants Diner,5,London,NW10 6RR,-0.238828,51.527473
620cd587aa28c13b7951371c,Gill Supermarket,5,London,W6 0JD,-0.234858,51.49407
620cd587aa28c13b79513728,Gola Restaurant,5,London,SW6 5HD,-0.204678,51.476094
620cd587aa28c13b79513731,Golden Strand Hotel,5,London,W6 7LR,-0.222019,51.498597
620cd587aa28c13b7951373d,Grantly Hotel,5,London,W12 8PS,-0.22242599725723,51.5033149719238
620cd587aa28c13b79513743,Greek Street Food,AwaitingInspection,London,SW6 7BH,-0.2066627,51.4792723
620cd587aa28c13b79513746,Green Leaf,4,London,W6 7JP,-0.218329,51.49346
620cd587aa28c13b79513749,GreenBay Supermarket,5,London,W14 9NU,-0.202997,51.485879
620cd587aa28c13b7951374c,Greenside Primary School,4,London,W12 9PT,-0.236612,51.503871
620cd587aa28c13b7951374f,Greenwood Newsagent,Exempt,London,W12 7DP,-0.224894,51.506545
620cd587aa28c13b79513752,Greggs,5,London,W6 9JG,-0.230327,51.492392
620cd587aa28c13b79513755,Greggs,5,London,SW6 1NS,-0.200101,51.482625
620cd587aa28c13b79513758,Greggs,5,London,W12 8LP,-0.219696,51.504596
620cd587aa28c13b7951375b,Greggs,5,London,SW6 5SA,-0.206834,51.474724
620cd587aa28c13b7951375e,Grill Eat,AwaitingInspection,London,W14 9PP,-0.205252,51.488612
620cd587aa28c13b79513761,Grove Neighbourhood Centre,5,London,W6 0DT,-0.232086,51.496087
620cd587aa28c13b7951376a,H G Walter,5,London,W14 9EB,-0.212908,51.489169
620cd587aa28c13b79513773,Hair Of The Dog,Exempt,London,SW6 1NR,-0.200597,51.48319
620cd587aa28c13b79513776,Half Moon Cafe,5,London,W6 8JA,-0.22266,51.488796
620cd587aa28c13b79513779,Hally's,5,London,SW6 4LS,-0.201124,51.472721
620cd587aa28c13b7951377c,Hammersmith & Fulham Foodbank,5,London,SW6 3TD,-0.196259,51.471226
620cd587aa28c13b7951377f,Hammersmith & Fulham Foodbank,5,London,W12 7DA,-0.2346,51.511556
620cd587aa28c13b7951378b,Hammersmith Food & Wine,5,London,W12 0BS,-0.247962,51.515983
620cd587aa28c13b79513794,Hand And Flower,3,London,W14 8XJ,-0.208411,51.495845
620cd587aa28c13b7951379a,Happy Sky,4,London,W12 9BL,-0.243422,51.502894
620cd587aa28c13b7951379d,Harana Meze Bar & Restaurant,4,London,W12 8AA,-0.223064,51.505078
620cd587aa28c13b795137a0,Harlequin,5,London,SW6 2UF,-0.191507,51.470505
620cd587aa28c13b795137b5,Harrow Road Convenience Store,5,London,NW10 5NJ,-0.233953,51.532391
620cd587aa28c13b795137bb,Harwood Arms,5,London,SW6 1QP,-0.197847,51.482446
620cd587aa28c13b795137c7,Haweli Indian Cuisine,4,London,W6 9NH,-0.240821,51.493341
620cd587aa28c13b795137ca,Heaps + Stacks,Exempt,London,SW6 6UA,-0.21359999477863,51.4779014587402
620cd587aa28c13b795137cd,Hellenic Hotel,5,London,W6 7LR,-0.222019,51.498597
620cd587aa28c13b795137d0,Herbal China,Exempt,London,W6 0QU,-0.232831,51.492834
620cd587aa28c13b795137d6,Hoang Lan,3,London,W12 9AU,-0.242337,51.502239
620cd587aa28c13b795137d9,Ho-ja,3,London,W12 8QQ,-0.224466,51.502725
620cd587aa28c13b795137dc,Holland & Barrett,5,London,SW6 1BH,-0.198496,51.480586
620cd587aa28c13b795137eb,Holland Park Green,1,London,W11 4SX,-0.215969,51.507794
620cd587aa28c13b795137f4,Holroyd Howe Ltd At Chelsea Independent College,5,London,SW6 1HD,-0.19284,51.480139
620cd587aa28c13b795137fa,Holy Cow,5,London,W6 0RX,-0.244311,51.493618
620cd587aa28c13b79513803,Home Hire Bartender,AwaitingInspection,London,NW10 6RB,-0.237562,51.53151
620cd587aa28c13b79513806,Home Slice,5,London,SW6 1TU,-0.196984,51.487145
620cd587aa28c13b7951380c,Honest Burgers,5,London,W6 9PH,-0.223763,51.490422
620cd587aa28c13b79513812,Hong Tin,5,London,W6 7PB,-0.222856,51.497827
620cd587aa28c13b79513815,Honi Poke,5,London,SW6 1TU,-0.196984,51.487145
620cd587aa28c13b79513818,Hooked,5,London,W6 9PH,-0.223763,51.490422
620cd587aa28c13b7951381b,Hot Pot,3,London,W12 8QP,-0.225661,51.502393
620cd587aa28c13b7951381e,Hot Wok Garden,3,London,W6 9NJ,-0.243717,51.493321
620cd587aa28c13b79513821,Hotbox Spitafields,5,London,SW6 1BY,-0.19027502043219,51.4801756909287
620cd587aa28c13b79513824,Hotel 65,3,London,W6 7LS,-0.22182,51.499277
620cd587aa28c13b7951382d,Hotel Lily,4,London,SW6 1UG,-0.197963,51.486432
620cd587aa28c13b79513833,Hoxton Beach,4,London,NW10 6UG,-0.242581,51.528869
620cd587aa28c13b79513836,Hungry Turtle,4,London,SW6 2DH,-0.193896,51.480011
620cd587aa28c13b79513839,Hurlingham Academy,5,London,SW6 3EB,-0.195263,51.467991
620cd587aa28c13b7951383f,Ibis London Shepherd's Bush,4,London,W14 0DJ,-0.22016,51.503407
620cd587aa28c13b79513842,Iceland,5,London,W6 9JG,-0.22989,51.4923497
620cd587aa28c13b79513845,Iceland,5,London,SW6 1NQ,-0.200933,51.483069
620cd587aa28c13b79513848,Iceland,4,London,W3 7DA,-0.248821,51.514638
620cd587aa28c13b7951384e,Ichiro,4,London,SW6 1NN,-0.201912,51.484918
620cd587aa28c13b79513851,IF PANZEROTTO & Co,5,London,W6 0DA,-0.22619900107384,51.4937324523926
620cd587aa28c13b79513854,Il Gusto,5,London,W6 0RA,-0.235774,51.493094
620cd587aa28c13b79513857,Il Pagliaccio,5,London,SW6 2UF,-0.191507,51.470505
620cd587aa28c13b79513863,Imperial Dragon,3,London,W6 9PL,-0.222939,51.488278
620cd587aa28c13b7951386c,Indian Zing,5,London,W6 0RF,-0.237457,51.493533
620cd587aa28c13b7951387b,Intercontinental Foods,5,London,W12 9RA,-0.238236,51.506224
620cd587aa28c13b7951388a,Irish Meat Market,5,London,W12 8HA,-0.22791,51.502346
620cd587aa28c13b79513890,IRO Sushi & Bar,5,London,SW6 1UD,-0.201988,51.48554
620cd587aa28c13b79513899,Istanbul Organic,5,London,W6 0QU,-0.23283100128174,51.4928359985352
620cd587aa28c13b795138ab,Jack & Beyond,5,London,SW6 5RP,-0.20342,51.476947
620cd587aa28c13b795138b1,Jacks,AwaitingInspection,London,SW6 2UH,-0.1917282,51.4716241
620cd587aa28c13b795138b4,Jacks Store,3,London,W12 0JH,-0.237337,51.509718
620cd587aa28c13b795138b7,Jaffa Bake House,5,London,SW6 1NP,-0.200883,51.483608
620cd587aa28c13b795138ba,Jaffa Food House,3,London,SW6 1NW,-0.201379,51.484191
620cd587aa28c13b795138bd,Jamminz Caribbean Take Away,AwaitingInspection,London,SW6 1NP,-0.200883,51.483608
620cd587aa28c13b795138c3,Jasmine Thai,4,London,W12 8DH,-0.225283,51.502855
620cd587aa28c13b795138c9,Jerk To Your Door,5,London,SW6 1NJ,-0.20194399356842,51.4840927124023
620cd587aa28c13b795138cc,Jin-Da Thai,4,London,W6 0JS,-0.234015,51.493518
620cd587aa28c13b795138d2,Jo Jo Convenience Store,5,London,SW6 3LQ,-0.211324,51.471106
620cd587aa28c13b795138d5,Joe & The Juice,5,London,SW6 5HE,-0.205309,51.475789
620cd587aa28c13b795138d8,Joe And Co. Burgers,4,London,SW6 1NR,-0.200597,51.483189
620cd587aa28c13b795138e1,Joe's Brasserie,3,London,SW6 2UL,-0.191818,51.472471
620cd587aa28c13b795138e7,John Snow,3,London,W12 7LL,-0.234083,51.506656
620cd587aa28c13b795138f3,JRK Kitchen,4,London,SW6 1QR,-0.197656,51.482164
620cd587aa28c13b795138fc,K2 Chicken,2,London,W12 8HA,-0.22791,51.502346
620cd587aa28c13b79513902,Kabul Gate Supermarket,2,London,W12 8AA,-0.223064,51.505078
620cd587aa28c13b79513905,Kahya London,5,London,SW6 5UQ,-0.198393,51.479901
620cd587aa28c13b79513908,Kalamaki Street Greek,5,London,SW6 1AE,-0.195974,51.480268
620cd587aa28c13b7951390b,Kamasutra Indian Restaurant,5,London,W6 9JR,-0.232702,51.492427
620cd587aa28c13b79513911,Karam Lebanese Deli,3,London,W6 7JP,-0.218329,51.49346
620cd587aa28c13b79513917,Karma,5,London,W14 0HA,-0.213128,51.497176
620cd587aa28c13b7951391d,Kebab Fish,AwaitingInspection,London,W12 8EG,-0.227416,51.502087
620cd587aa28c13b79513920,Kebab Kid,4,London,SW6 4LU,-0.202824,51.472343
620cd587aa28c13b79513926,Kensington Convenience Store,5,London,W14 9NH,-0.207093,51.491634
620cd587aa28c13b7951392c,Kensington West Hotel,5,London,W14 8SN,-0.206027,51.493461
620cd587aa28c13b7951392f,Kenta,4,London,W6 9PL,-0.222939,51.488278
620cd587aa28c13b79513932,Kerbisher & Malt,5,London,W6 7PB,-0.222856,51.497827
620cd587aa28c13b7951393b,KFC,5,London,W12 8LR,-0.220969,51.50484
620cd587aa28c13b7951393e,KFC,5,London,W12 9RA,-0.238236,51.506224
620cd587aa28c13b79513941,KFC,5,London,SW6 1NF,-0.20043,51.482306
620cd587aa28c13b79513944,KFC,5,London,W6 0QW,-0.229925,51.492745
620cd587aa28c13b79513950,Kilimanjaro Business Centre,2,London,W12 7LL,-0.234083,51.506656
620cd587aa28c13b7951395c,Kings Convenience Shop,3,London,W6 0RA,-0.235774,51.493094
620cd587aa28c13b79513962,Kingston 20 Caribbean Mix Cuisine,AwaitingInspection,London,W12 9RA,-0.238236,51.506224
620cd587aa28c13b79513968,KishmishGo,5,London,W6 8NX,-0.218516,51.484983
620cd587aa28c13b7951396b,Kiss My Grass,5,London,SW6 7SX,-0.203546,51.484746
620cd587aa28c13b7951396e,Koji,5,London,SW6 4LS,-0.201124,51.472722
620cd587aa28c13b79513974,Kona Kai,3,London,SW6 1HD,-0.19284,51.480139
620cd587aa28c13b79513983,Krystals,5,London,SW6 5HE,-0.205309,51.475789
620cd587aa28c13b79513986,Krystals Food Market,4,London,SW6 2TX,-0.190443,51.468645
620cd587aa28c13b7951398c,Kush,4,London,W12 8DH,-0.2251745,51.5028538
620cd587aa28c13b7951398f,La Brioche,3,London,W12 7JA,-0.229575,51.506247
620cd587aa28c13b79513992,La Crema Peri Peri Grill House,AwaitingInspection,London,W12 8AA,-0.223064,51.505078
620cd587aa28c13b79513995,La Librairie Ltd,5,London,W6 9NJ,-0.243717,51.493321
620cd587aa28c13b79513998,La Petite Bretagne,4,London,W6 0EA,-0.225524,51.493299
620cd587aa28c13b7951399b,La Piccola,3,London,W6 9LP,-0.238045,51.49285
620cd587aa28c13b7951399e,La Pizzica,5,London,SW6 5SJ,-0.210226,51.472312
620cd587aa28c13b795139a1,La Pizzica,1,London,SW6 5HQ,-0.206163,51.474939
620cd587aa28c13b795139ad,Lahore Spice,1,London,W12 7LL,-0.234083,51.506656
620cd587aa28c13b795139b0,Lahori Restaurant,4,London,W12 0NR,-0.237846,51.506614
620cd587aa28c13b795139b3,Laissez Faire,5,London,W6 0RA,-0.23582799732685,51.4931869506836
620cd587aa28c13b795139b6,L'Amorosa,5,London,W6 0SP,-0.239598,51.493682
620cd587aa28c13b795139b9,Lamour,AwaitingInspection,London,SW6 6BA,-0.2116819,51.4798165
620cd587aa28c13b795139bc,Langani Supermarket,4,London,SW6 6BU,-0.21223,51.479987
620cd587aa28c13b795139bf,L'Antico,4,London,SW6 2DY,-0.188197,51.479177
620cd587aa28c13b795139cb,Latymer Liquormart,5,London,W6 7JP,-0.218329,51.49346
620cd587aa28c13b795139ce,Latymers,5,London,W6 8BS,-0.217467,51.493042
620cd587aa28c13b795139d7,Laveli Bakery,2,London,W12 9BL,-0.243422,51.502894
620cd587aa28c13b795139da,Lavolio Ltd,5,London,SW6 3BX,-0.198368,51.470323
620cd587aa28c13b795139e3,Le Pain Quotidien,5,London,SW6 4HU,-0.200981,51.474887
620cd587aa28c13b795139e9,Le Petit Bistro,4,London,SW6 2UH,-0.191737,51.471606
620cd587aa28c13b795139ec,Le Petit Citron,5,London,W6 7PD,-0.222468,51.499269
620cd587aa28c13b795139ef,Le Petit Moulin Traiteur Ltd,4,London,NW10 6UG,-0.2427287,51.5289448
620cd587aa28c13b795139f2,Lebanese Bakery,0,London,W12 7LL,-0.234083,51.506656
620cd587aa28c13b795139f5,Lebanese Taverna Express,5,London,W6 9PH,-0.223763,51.490422
620cd587aa28c13b795139fe,L'Elysee,5,London,W14 0QH,-0.21206,51.494642
620cd587aa28c13b79513a01,L'Elysee Express,5,London,W14 0SH,-0.211015,51.494482
620cd587aa28c13b79513a16,Lily Tandoori Restaurant,5,London,SW6 1TL,-0.202107,51.485803
620cd587aa28c13b79513a1c,Lion TV,5,London,W6 0UB,-0.236989,51.498571
620cd587aa28c13b79513a25,Little H,5,London,SW6 4RB,-0.201282,51.472355
620cd587aa28c13b79513a2b,Little Muffins Nursery,5,London,W6 0RR,-0.242277,51.493705
620cd587aa28c13b79513a2e,Little Napoli,5,London,W12 0NR,-0.237846,51.506614
620cd587aa28c13b79513a34,Little People Of Fulham,4,London,SW6 7PX,-0.210936,51.483231
620cd587aa28c13b79513a3a,Little Red Cantina,4,London,W6 9NJ,-0.243717,51.493321
620cd587aa28c13b79513a40,Little Sourdough Kitchen,4,London,SW6 6BT,-0.21241306412514,51.4804266484332
620cd587aa28c13b79513a43,Little Tugboat Day Nursery,5,London,SW6 6HE,-0.217097,51.475933
620cd587aa28c13b79513a46,Little Waitrose,5,London,W14 9PP,-0.205252,51.488611
620cd587aa28c13b79513a49,Little Waitrose,5,London,W6 8QX,-0.219513,51.484152
620cd587aa28c13b79513a4f,Liwan Alsham,3,London,W12 7DA,-0.2346,51.511556
620cd587aa28c13b79513a52,Liz Cafe,4,London,W12 8QQ,-0.224466,51.502725
620cd587aa28c13b79513a55,Local Hero Deli,5,London,SW6 5RT,-0.204752,51.47641
620cd587aa28c13b79513a58,Locale Restaurant,4,London,SW6 6AY,-0.211122,51.478855
620cd587aa28c13b79513a5e,Loco,5,London,W12 9BL,-0.243422,51.502894
620cd587aa28c13b79513a64,Loft Studio - Social Pantry,5,London,NW10 6QW,-0.23589,51.528517
620cd587aa28c13b79513a67,Loghmeh,3,London,SW6 6BH,-0.213464,51.482298
620cd587aa28c13b79513a6a,Lola's Caffe,4,London,W12 0BP,-0.24808,51.516308
620cd587aa28c13b79513a70,Londis,5,London,SW6 6BH,-0.213409,51.482253
620cd587aa28c13b79513a73,Londis,4,London,W14 9EB,-0.212908,51.489169
620cd587aa28c13b79513a76,Londis,4,London,W12 8LP,-0.219696,51.504596
620cd587aa28c13b79513a79,Londis,4,London,SW6 6LB,-0.221258,51.478172
620cd587aa28c13b79513a7c,London Best Kebab,5,London,W12 8AA,-0.223064,51.505078
620cd587aa28c13b79513a7f,London College Of Fashion,5,London,W12 8EA,-0.22805,51.504317
620cd587aa28c13b79513a85,London Cru At Roberson Wine,5,London,SW6 1RP,-0.196929,51.486343
620cd587aa28c13b79513a8e,Los Molinos,5,London,W6 7LP,-0.222311,51.497756
620cd587aa28c13b79513a97,Love Churros,5,London,SW6 1BY,-0.19027502043219,51.4801756909287
620cd587aa28c13b79513a9d,Love Walk Cafe,4,London,SW6 1BH,-0.198496,51.480586
620cd587aa28c13b79513aa3,Lowiczanka Restaurant,5,London,W6 0RF,-0.237457,51.493533
620cd587aa28c13b79513aac,Luma Concept Hotel,5,London,W6 0LS,-0.228627,51.494623
620cd587aa28c13b79513aaf,Luna Nuova,2,London,SW6 5HA,-0.203929,51.476469
620cd587aa28c13b79513ab8,Lytton Estate Community Hall,5,London,W14 8TE,-0.207093,51.493082
620cd587aa28c13b79513ac4,Mace,4,London,SW6 4NZ,-0.209166,51.469589
620cd587aa28c13b79513aca,Mace Montessori School,5,London,W6 0JB,-0.234752,51.493457
620cd587aa28c13b79513ad3,Made Of Dough,4,London,SW6 1BY,-0.19027502043219,51.4801756909287
620cd587aa28c13b79513adc,Magic Wok,4,London,W3 7DA,-0.248821,51.514638
620cd587aa28c13b79513adf,Mahdi Restaurant,3,London,W6 9JT,-0.2351061,51.4926891
620cd587aa28c13b79513ae2,Maison Delice,1,London,W12 9RA,-0.238236,51.506224
620cd587aa28c13b79513ae5,Maison Souss,4,London,W12 8LR,-0.220969,51.50484
620cd587aa28c13b79513ae8,Majestic Wine Warehouse,Exempt,London,W12 8EP,-0.234369,51.500375
620cd587aa28c13b79513aeb,Majestic Wine Warehouse,Exempt,London,SW6 4RN,-0.209943,51.469242
620cd587aa28c13b79513af1,Malik Moneywise,3,London,W14 8TQ,-0.206913,51.492171
620cd587aa28c13b79513afd,Mandarin Star,1,London,W12 8HA,-0.22791,51.502346
620cd587aa28c13b79513b00,Mangiamo Pizzeria,4,London,SW6 5SL,-0.210918,51.471918
620cd587aa28c13b79513b06,Manuka Kitchen,3,London,SW6 5NJ,-0.19922,51.479751
620cd587aa28c13b79513b0c,Mari Deli,5,London,W6 9TN,-0.2439219330111,51.4894309240088
620cd587aa28c13b79513b15,Market Hall Fulham,5,London,SW6 1BY,-0.19027502043219,51.4801756909287
620cd587aa28c13b79513b18,Marks & Spencer,5,London,W6 9HW,-0.227717,51.492478
620cd587aa28c13b79513b24,Mary Seacole House,5,London,W6 0HQ,-0.243008,51.497546
620cd587aa28c13b79513b27,Masbro Brook Green Children's Centre,5,London,W6 7BJ,-0.216727,51.495405
620cd587aa28c13b79513b2a,Masbro Food & Wine,2,London,W14 0LS,-0.21596,51.499548
620cd587aa28c13b79513b2d,Mashiva Ltd,5,London,W12 0BP,-0.24808,51.516308
620cd587aa28c13b79513b36,"Maurizio Barca - Pizza, Dolci & Pasta All'Vovo",5,London,W14 9EX,-0.206575,51.489765
620cd587aa28c13b79513b3c,Maxmint Thai Supermarket,5,London,W6 8QX,-0.2192736,51.4838348
620cd587aa28c13b79513b3f,McColls,5,London,W6 8RL,-0.215033,51.490083
620cd587aa28c13b79513b42,McDonald's,5,London,SW6 1NG,-0.200903,51.482727
620cd587aa28c13b79513b45,McDonald's,5,London,W12 8LR,-0.220969,51.50484
620cd587aa28c13b79513b4b,McGettigan's Fulham,3,London,SW6 1AA,-0.196672,51.480089
620cd587aa28c13b79513b4e,Me Me,3,London,SW6 1ES,-0.194503,51.479949
620cd587aa28c13b79513b51,Medet Kaya,AwaitingInspection,London,W6 9PH,-0.223763,51.490422
620cd587aa28c13b79513b57,Megan's By The Green,5,London,SW6 4JA,-0.200477,51.474888
620cd587aa28c13b79513b5a,Megan's Delicatessen,3,London,SW6 2EB,-0.187628,51.478997
620cd587aa28c13b79513b5d,Meridionale,2,London,SW6 4RF,-0.203803,51.471971
620cd587aa28c13b79513b63,Merze,5,London,W12 7JA,-0.229574,51.506246
620cd587aa28c13b79513b66,Mes Amis,3,London,W6 9HA,-0.223336,51.482871
620cd587aa28c13b79513b69,Messi Abyssinia,4,London,W12 8HA,-0.22791,51.502346
620cd587aa28c13b79513b78,Mien Tay,4,London,SW6 3JJ,-0.210084,51.470044
620cd587aa28c13b79513b7b,Mikael's Delicatessen,5,London,W6 9NJ,-0.243717,51.493321
620cd587aa28c13b79513b7e,Mikawa,5,London,W12 8QQ,-0.224466,51.502725
620cd587aa28c13b79513b81,MIL KITCHEN,3,London,SW6 6BH,-0.213409,51.482253
620cd587aa28c13b79513b8a,Millie's House Nursery,3,London,SW6 6HT,-0.218023,51.480264
620cd587aa28c13b79513b8d,Millie's House Nursery And Pre-School,5,London,SW6 4SN,-0.196101,51.473768
620cd587aa28c13b79513b96,Miran Masala,4,London,W14 8XJ,-0.208411,51.495845
620cd587aa28c13b79513b99,Miras Cafe,5,London,SW6 1NH,-0.2012429,51.4834248
620cd587aa28c13b79513b9f,Mleczko Polish Delicatessen,5,London,W12 8LH,-0.227612,51.505579
620cd587aa28c13b79513ba2,Mleczko Polish Delicatessen,3,London,W12 7LL,-0.234083,51.506656
620cd587aa28c13b79513ba8,Monaco Food & Wine,4,London,W3 7DA,-0.2490518,51.5148309
620cd587aa28c13b79513bae,Monkey Puzzle Day Nursery,5,London,W14 0AE,-0.217227,51.498443
620cd587aa28c13b79513bb1,Monkey Temple,4,London,W12 9BL,-0.243422,51.502894
620cd587aa28c13b79513bb4,Montessori School No 2,5,London,SW6 2JX,-0.184,51.47208
620cd587aa28c13b79513bb7,Monty's,2,London,SW6 5SA,-0.206834,51.474724
620cd587aa28c13b79513bbd,Moore Superstore,5,London,W6 7PD,-0.222468,51.499269
620cd587aa28c13b79513bc0,More Please,5,London,NW10 6UF,-0.242066,51.5295
620cd587aa28c13b79513be7,Mustard And Custard,4,London,W6 0RA,-0.235774,51.493094
620cd587aa28c13b79513bea,Muyang Hot Pot & BBQ,4,London,W12 8QQ,-0.224466,51.502725
620cd587aa28c13b79513bf0,My Kid Atelier,5,London,SW6 7QP,-0.208448,51.480926
620cd587aa28c13b79513bf3,My Shop Local,4,London,W6 8NS,-0.213793,51.486044
620cd587aa28c13b79513bf9,Naama,5,London,W12 7LL,-0.234083,51.506656
620cd587aa28c13b79513c02,Naked Nosh,5,London,W14 9LP,-0.20435699820518,51.4904937744141
620cd587aa28c13b79513c05,Nandos,5,London,W6 9JG,-0.230327,51.492392
620cd587aa28c13b79513c0b,Nandos,5,London,W12 7JA,-0.229575,51.506247
620cd587aa28c13b79513c14,Nang Thai Restaurant,3,London,W14 0QL,-0.213799,51.494003
620cd587aa28c13b79513c17,Natis Wholefoods,5,London,SW6 3LQ,-0.211324,51.471106
620cd587aa28c13b79513c1d,Nayaab Indian Restaurant,4,London,SW6 4RF,-0.203803,51.471971
620cd587aa28c13b79513c20,Nazareth House,5,London,W6 8DB,-0.218871,51.492866
620cd587aa28c13b79513c26,Nepal Authentic Dining,4,London,W12 8NL,-0.233162,51.506256
620cd587aa28c13b79513c32,New Banaadiri Restaurant Ltd,1,London,W12 7LL,-0.234083,51.506656
620cd587aa28c13b79513c35,New Bangkok,4,London,W6 9PH,-0.223763,51.490422
620cd587aa28c13b79513c3e,New Ocean Fish Bar,4,London,W6 8NH,-0.218287,51.485312
620cd587aa28c13b79513c41,New Quebec Cuisine,3,London,NW10 6UG,-0.24258,51.528869
620cd587aa28c13b79513c44,New Sweet N Sour,3,London,W12 8NR,-0.231368,51.506085
620cd587aa28c13b79513c47,Newpark Montessori School And Nursery,5,London,W12 0NS,-0.239127,51.506651
620cd587aa28c13b79513c4a,Newsmart,5,London,W12 9AU,-0.242337,51.502239
620cd587aa28c13b79513c4d,Nexus,AwaitingInspection,London,SW6 1DL,-0.19345,51.480355
620cd587aa28c13b79513c50,Nice Local,4,London,W14 0QH,-0.21206,51.494642
620cd587aa28c13b79513c53,Nile Butchers,5,London,W11 4SX,-0.215969,51.507794
620cd587aa28c13b79513c5c,Nisa Local,5,London,W12 0HL,-0.22710600495338,51.5163879394531
620cd587aa28c13b79513c5f,Nisa Local,5,London,W12 7JD,-0.227413,51.50589
620cd587aa28c13b79513c62,Nisa Local,4,London,W12 9BJ,-0.243803,51.503835
620cd587aa28c13b79513c68,Nonna Tonda,4,London,SW6 1TT,-0.197763,51.487139
620cd587aa28c13b79513c6e,North End Supermarket,4,London,W14 9PP,-0.205252,51.488612
620cd587aa28c13b79513c71,Nosh Detox And Delivery Ltd,4,London,SW6 5PU,-0.198973,51.479442
620cd587aa28c13b79513c74,Noshi Sushi,4,London,W6 0SP,-0.239598,51.493682
620cd587aa28c13b79513c80,Nuntee,5,London,SW6 5RP,-0.20342,51.476947
620cd587aa28c13b79513c83,Nuovi Sapori,4,London,SW6 4RE,-0.202962,51.472111
620cd587aa28c13b79513c86,Nutcase,5,London,W12 7LL,-0.234083,51.506656
620cd587aa28c13b79513c8c,O Burger,5,London,W12 8HD,-0.229318,51.502088
620cd587aa28c13b79513c8f,O2 Food And Wine,4,London,SW6 4QP,-0.194601,51.479303
620cd587aa28c13b79513c92,Ocean Catch,3,London,SW6 1NS,-0.200101,51.482625
620cd587aa28c13b79513c95,Ochi Caribbean Take Away,5,London,W12 7JD,-0.227413,51.50589
620cd587aa28c13b79513c98,October 26,4,London,W12 9AU,-0.242337,51.502239
620cd587aa28c13b79513c9b,Octoberfest,2,London,SW6 5SA,-0.206834,51.474724
620cd587aa28c13b79513c9e,Oddbins,Exempt,London,SW6 4ST,-0.19810600578785,51.4733123779297
620cd587aa28c13b79513ca1,Oddbins,Exempt,London,W14 9EB,-0.212908,51.489169
620cd587aa28c13b79513cb3,Old Suffolk Punch,5,London,W6 9PL,-0.222939,51.488278
620cd587aa28c13b79513cb9,Olive Delicatessen And Catering,5,London,SW6 6DB,-0.210429,51.477423
620cd587aa28c13b79513cbc,Olivia Pizza & Beijing Wok London,4,London,W12 9AU,-0.242393,51.502285
620cd587aa28c13b79513cbf,Olympia Food & Wine,4,London,W14 8XJ,-0.208411,51.495845
620cd587aa28c13b79513cc2,Olympia Foods,5,London,W14 0HB,-0.216041,51.497463
620cd587aa28c13b79513cc5,Olympia Post Office,Exempt,London,W14 0SH,-0.211015,51.494482
620cd587aa28c13b79513cce,ONZ Food & Wine,Exempt,London,W12 7LJ,-0.231579,51.506574
620cd587aa28c13b79513cd4,Ottoman,5,London,W6 8QX,-0.21954,51.484198
620cd587aa28c13b79513cd7,Over Under Coffee,5,London,SW6 1TU,-0.19698399305344,51.4871444702148
620cd587aa28c13b79513cda,Oxfam,5,London,W6 9HW,-0.227717,51.492478
620cd587aa28c13b79513cef,Panda City Market,5,London,W12 9NS,-0.234189,51.500929
620cd587aa28c13b79513cf2,Panizza,4,London,SW6 3BX,-0.198368,51.470323
620cd587aa28c13b79513cf8,Papa John's,5,London,W6 0RX,-0.244311,51.493618
620cd587aa28c13b79513cfb,Papa John's,5,London,SW6 1QR,-0.197656,51.482164
620cd587aa28c13b79513cfe,Papis Kitchen,Exempt,London,NW10 6UF,-0.242066,51.5295
620cd587aa28c13b79513d01,Pappa Ciccia,5,London,SW6 5RQ,-0.209214001894,51.4760818481445
620cd587aa28c13b79513d04,Pappa Ciccia,5,London,SW6 3JJ,-0.209974,51.469925
620cd587aa28c13b79513d07,Paradise Stores,4,London,SW6 6LR,-0.222754,51.481549
620cd587aa28c13b79513d0a,Paris - Brest Patisserie,3,London,W12 8LP,-0.219767,51.504623
620cd587aa28c13b79513d0d,Parma Wood Oven Pizza,4,London,W12 9PE,-0.238097,51.500107
620cd587aa28c13b79513d10,Parmars,5,London,SW6 7HS,-0.208582,51.481199
620cd587aa28c13b79513d13,Parsons Green Fish Bar,4,London,SW6 4HS,-0.201143,51.476265
620cd587aa28c13b79513d16,Parsons Green Nursery,5,London,SW6 3QA,-0.202965,51.47168
620cd587aa28c13b79513d19,Parsons Green Nursery Ltd,AwaitingInspection,London,SW6 5RS,-0.2043182,51.4766286
620cd587aa28c13b79513d1f,Parsons Nose,5,London,SW6 5UU,-0.203157,51.476682
620cd587aa28c13b79513d22,Pasha's Grill Ltd,4,London,W14 9NS,-0.202564,51.485909
620cd587aa28c13b79513d28,Pasta Evangelists,AwaitingInspection,London,W14 0PP,-0.2121349,51.4973231
620cd587aa28c13b79513d2e,Patisserie Sainte-Anne,3,London,W6 0RA,-0.235774,51.493094
620cd587aa28c13b79513d31,Patri,5,London,W6 0NQ,-0.227659,51.497693
620cd587aa28c13b79513d3d,Paya,2,London,W12 9AU,-0.242337,51.502239
620cd587aa28c13b79513d43,Pearl Hotel,5,London,W6 7LU,-0.221716,51.500831
620cd587aa28c13b79513d46,Pedal Back Cycling,5,London,SW6 1TS,-0.197686,51.486886
620cd587aa28c13b79513d49,Pekoe Mellow Tea House,5,London,W6 0DH,-0.230687,51.496866
620cd587aa28c13b79513d4c,Pentecostal City Mission Church,5,London,NW10 6RB,-0.237562,51.53151
620cd587aa28c13b79513d4f,Pentolina,5,London,W14 0HP,-0.217918,51.497725
620cd587aa28c13b79513d52,Pepe's Piri Piri,5,London,SW6 5UA,-0.197502,51.480238
620cd587aa28c13b79513d5e,Perbacco,5,London,SW6 5RT,-0.204752,51.47641
620cd587aa28c13b79513d61,Pereiras Beauty,Exempt,London,W12 7JP,-0.225527,51.505475
620cd587aa28c13b79513d64,Perfect Spice,4,London,W12 0BJ,-0.246669,51.515523
620cd587aa28c13b79513d6a,Peterborough Cafe,3,London,SW6 3BN,-0.199377,51.471751
620cd587aa28c13b79513d73,Pho District,4,London,W6 0RA,-0.235774,51.493094
620cd587aa28c13b79513d76,Piate,5,London,W6 0RR,-0.242277,51.493705
620cd587aa28c13b79513d7c,Pick N Mix London,AwaitingInspection,London,W14 9EX,-0.206575,51.489765
620cd587aa28c13b79513d7f,Pick N Save Off Licence,4,London,W12 8QQ,-0.224466,51.502725
620cd587aa28c13b79513d8e,Pippa Pop-Ins,5,London,SW6 4SN,-0.1960793,51.4737504
620cd587aa28c13b79513d91,Pippa Pop-Ins,5,London,SW6 4XE,-0.198927,51.472571
620cd587aa28c13b79513d94,Pippa Pop-Ins,5,London,SW6 1DU,-0.191748,51.480419
620cd587aa28c13b79513d97,Pitanga,5,London,W14 9NX,-0.203566,51.486814
620cd587aa28c13b79513d9a,Pizza And Pot,AwaitingInspection,London,SW6 5UA,-0.197502,51.480238
620cd587aa28c13b79513d9d,Pizza At Home,2,London,SW6 1TL,-0.202107,51.485802
620cd587aa28c13b79513da0,Pizza Corner,4,London,W12 7JA,-0.229575,51.506247
620cd587aa28c13b79513da3,Pizza Express,5,London,W6 9ER,-0.221176,51.486192
620cd587aa28c13b79513da6,Pizza Express,5,London,W14 0DJ,-0.22016,51.503407
620cd587aa28c13b79513da9,Pizza Express,5,London,SW6 5HU,-0.208134,51.473153
620cd587aa28c13b79513db5,Pizza Fresco,4,London,W6 7PJ,-0.222765,51.502016
620cd587aa28c13b79513db8,Pizza GoGo Fulham,4,London,SW6 7SX,-0.203546,51.484746
620cd587aa28c13b79513dbb,Pizza Hut Delivery,4,London,W6 0SP,-0.239598,51.493682
620cd587aa28c13b79513dbe,Pizza Hut Delivery,5,London,SW6 5RU,-0.205469,51.476106
620cd587aa28c13b79513dc4,Pizza Pronto,3,London,W14 8TD,-0.206856,51.49289
620cd587aa28c13b79513dc7,Pizza Royal,4,London,W14 0AS,-0.217264,51.501564
620cd587aa28c13b79513dca,Pizzaria Da Mariano,5,London,W6 8JA,-0.22266,51.488796
620cd587aa28c13b79513dd6,Play Football,5,London,W12 7RW,-0.2287013,51.511188
620cd587aa28c13b79513dd9,Playdays Day Nursery,4,London,W14 9HB,-0.210931,51.489247
620cd587aa28c13b79513ddc,Playdays Day Nursery,5,London,W14 9HT,-0.209831,51.489014
620cd587aa28c13b79513ddf,Plaza Hotel,5,London,W6 7LU,-0.221715,51.500831
620cd587aa28c13b79513de2,Plough And Harrow,5,London,W6 0QU,-0.232831,51.492834
620cd587aa28c13b79513de5,Polish Deli,5,London,W6 9JT,-0.233318,51.492536
620cd587aa28c13b79513dee,Popes Eye Steak House,5,London,W14 0HD,-0.218076,51.498123
620cd587aa28c13b79513df4,Poppy's,4,London,W6 0LR,-0.23187,51.4946
620cd587aa28c13b79513df7,Poppy's 2,3,London,W6 8NX,-0.218516,51.484983
620cd587aa28c13b79513dfa,Poppy's 3,5,London,W6 0BQ,-0.231325,51.497883
620cd587aa28c13b79513dfd,Porcini,3,London,SW6 1NL,-0.202693,51.4852
620cd587aa28c13b79513e00,Post Office,Exempt,London,W6 0QU,-0.232831,51.492834
620cd587aa28c13b79513e03,Potli,4,London,W6 9NH,-0.240878,51.493341
620cd587aa28c13b79513e06,Pottery Cafe,5,London,SW6 5UL,-0.20186,51.477076
620cd587aa28c13b79513e09,Pound Plus,Exempt,London,W12 8NR,-0.231368,51.506085
620cd587aa28c13b79513e0c,Poundland,2,London,SW6 1NG,-0.2008085,51.4827527
620cd587aa28c13b79513e0f,Poundland,4,London,W6 9HW,-0.227717,51.492478
620cd587aa28c13b79513e1e,Premier Food And Wine,4,London,W12 9RA,-0.23823599517345,51.5062255859375
620cd587aa28c13b79513e24,Premier Inn London Putney Bridge,5,London,SW6 3JD,-0.210617,51.468586
620cd587aa28c13b79513e2a,Press Coffee & Co.,5,London,SW6 1BY,-0.19027502043219,51.4801756909287
620cd587aa28c13b79513e2d,Pret A Manger,5,London,W6 0QA,-0.225676,51.493086
620cd587aa28c13b79513e45,Prima Delicatessen,1,London,W14 9NX,-0.203566,51.486814
620cd587aa28c13b79513e48,Prima Vera,5,London,SW6 4LY,-0.204387,51.472133
620cd587aa28c13b79513e4b,Princess Victoria,5,London,W12 9DH,-0.240263,51.506327
620cd587aa28c13b79513e4e,Proud Mary's,5,London,W12 0JD,-0.236937,51.507383
620cd587aa28c13b79513e5a,Pure Indian Cooking,5,London,SW6 3JJ,-0.209974,51.469925
620cd587aa28c13b79513e5d,Putney Bridge News,5,London,SW6 3JD,-0.210617,51.468586
620cd587aa28c13b79513e63,PWR BOX,AwaitingInspection,London,W6 0SP,-0.239598,51.493682
620cd587aa28c13b79513e69,Queen Adelaide,5,London,W12 0NR,-0.237846,51.506614
620cd587aa28c13b79513e6f,Queens Club Wine Store,Exempt,London,W14 9JL,-0.206315,51.489068
620cd587aa28c13b79513e72,Queens Tavern,4,London,W12 7PA,-0.226724,51.512102
620cd587aa28c13b79513e7e,Rafaello Cafe,5,London,W6 0RF,-0.237457,51.493533
620cd587aa28c13b79513e81,Raj Of India,1,London,W6 7PJ,-0.222765,51.502016
620cd587aa28c13b79513e84,Rajput Tandoori,5,London,W12 8HH,-0.230597,51.501802
620cd587aa28c13b79513e87,Randalls Butchers,5,London,SW6 2TE,-0.191621,51.473439
620cd587aa28c13b79513e8a,Rangrez,5,London,W6 9PH,-0.223763,51.490422
620cd587aa28c13b79513e90,Ravenscourt Park Prep School,5,London,W6 0SL,-0.237704,51.493861
620cd587aa28c13b79513e93,Ravenscourt Park Tea House,5,London,W6 9AR,-0.239181,51.492174
620cd587aa28c13b79513e99,Rays Playhouse,5,London,SW6 2PR,-0.187084,51.472388
620cd587aa28c13b79513ea2,Red Sea Restaurant,3,London,W12 7LL,-0.234083,51.506656
620cd587aa28c13b79513ea8,Renata Supermarket,4,London,SW6 2DA,-0.19347,51.478755
620cd587aa28c13b79513eab,Retail 24,4,London,W12 8LP,-0.219696,51.504596
620cd587aa28c13b79513eae,Retro Sofas & Cafe,4,London,SW6 6BU,-0.212229,51.479986
620cd587aa28c13b79513eb1,Reun Thai,4,London,W6 9PL,-0.222939,51.488278
620cd587aa28c13b79513eb4,Revive,Exempt,London,W12 7LJ,-0.231579,51.506574
620cd587aa28c13b79513eb7,RFC Chicken & Ribs,3,London,W6 8JA,-0.22266,51.488796
620cd587aa28c13b79513ebd,Ride Republic,5,London,SW6 5UL,-0.20186,51.477076
620cd587aa28c13b79513ec3,Ringo Pizza,3,London,W6 9PH,-0.223763,51.490422
620cd587aa28c13b79513ec6,Ritz Restaurant,5,London,W6 0RR,-0.242277,51.493705
620cd587aa28c13b79513ecc,River House,5,London,W6 9DJ,-0.231434,51.489855
620cd587aa28c13b79513ecf,Rivercourt Methodist Church,5,London,W6 9JT,-0.23331800103188,51.4925346374512
620cd587aa28c13b79513ed2,Riverside Studios,5,London,W6 9BN,-0.2282554,51.488909
620cd587aa28c13b79513ed8,Rooster's Grill,5,London,W12 7JD,-0.227413,51.50589
620cd587aa28c13b79513edb,Roosters Piri Piri,2,London,W12 8PH,-0.219407,51.503881
620cd587aa28c13b79513ee1,Ropix Pizza,3,London,W12 0BJ,-0.246668,51.515522
620cd587aa28c13b79513ee7,Roxie,5,London,SW6 5HE,-0.205309,51.475789
620cd587aa28c13b79513eed,Royal London Hotel & Apartments,5,London,W6 7LU,-0.221716,51.500831
620cd587aa28c13b79513ef0,Rude Health Cafe,3,London,SW6 4NZ,-0.209166,51.469589
620cd587aa28c13b79513ef3,Ryce,AwaitingInspection,London,W6 9JT,-0.233318,51.492536
620cd587aa28c13b79513ef9,Saba Hotel London,5,London,W6 7LR,-0.222019,51.498597
620cd587aa28c13b79513f05,Saffron,5,London,W6 0SP,-0.239598,51.493682
620cd587aa28c13b79513f08,Sagar Restaurant,5,London,W6 9JT,-0.233318,51.492536
620cd587aa28c13b79513f0e,Saigon Saigon,5,London,W6 9NH,-0.240821,51.493341
620cd587aa28c13b79513f11,Sainsbury's,5,London,W12 8AA,-0.223064,51.505078
620cd587aa28c13b79513f14,Sainsbury's,4,London,W6 8QZ,-0.219765,51.484705
620cd587aa28c13b79513f1d,Sainsbury's,5,London,W6 7PH,-0.222373,51.500599
620cd587aa28c13b79513f20,Sainsbury's,5,London,SW6 5NT,-0.201621,51.4778372
620cd587aa28c13b79513f23,Sainsbury's,5,London,SW6 5HU,-0.208134,51.473153
620cd587aa28c13b79513f2f,Sainsbury's Local,5,London,SW6 2UL,-0.191817,51.47247
620cd587aa28c13b79513f32,Sainsbury's Local,5,London,W12 9AX,-0.240746,51.501667
620cd587aa28c13b79513f35,Sainsbury's Local,5,London,W6 9NJ,-0.243717,51.493321
620cd587aa28c13b79513f3b,Saj Caffe,5,London,W12 8NR,-0.231368,51.506085
620cd587aa28c13b79513f41,Salt & Vinegar,4,London,SW6 6BU,-0.21223,51.479987
620cd587aa28c13b79513f47,Sammy's Halal Chicken,1,London,W12 7JA,-0.229575,51.506247
620cd587aa28c13b79513f4a,Sammy's Peri Peri Chicken,3,London,W12 7LJ,-0.231579,51.506574
620cd587aa28c13b79513f50,Sanbao Chinese Kitchen,4,London,W6 0RA,-0.235774,51.493094
620cd587aa28c13b79513f5c,Savanah,3,London,W12 8NL,-0.233162,51.506256
620cd587aa28c13b79513f62,Savoy Fisheries,4,London,W3 7DA,-0.248821,51.514638
620cd587aa28c13b79513f68,Select N Save,4,London,W14 9PP,-0.205252,51.488612
620cd587aa28c13b79513f6b,Selekt Chicken,5,London,W12 8AA,-0.223064,51.505078
620cd587aa28c13b79513f71,Sendiana,3,London,W14 0QL,-0.213799,51.494003
620cd587aa28c13b79513f77,Seraphine Hotel,5,London,W6 0QW,-0.229925,51.492745
620cd587aa28c13b79513f7d,Seven Seas,3,London,SW6 6BH,-0.213409,51.482253
620cd587aa28c13b79513f83,Shabab Restaurant,3,London,W12 8LH,-0.227612,51.505579
620cd587aa28c13b79513f86,Shaheer Halal Butchers,3,London,W12 8NR,-0.231368,51.506085
620cd587aa28c13b79513f89,Shahi Nan Kebab,4,London,W12 0NP,-0.237011,51.506602
620cd587aa28c13b79513f8c,Shanasheel,5,London,W12 8EN,-0.231422,51.50132
620cd587aa28c13b79513f8f,Shandeez,4,London,W14 0PR,-0.212346,51.49764
620cd587aa28c13b79513f92,Sheena Supermarket,2,London,W12 7DA,-0.2346,51.511556
620cd587aa28c13b79513f95,Shell Fulham Cross,5,London,W6 9NT,-0.220147,51.484154
620cd587aa28c13b79513f98,Shell Petroleum,5,London,SW6 5HY,-0.210343,51.4719
620cd587aa28c13b79513f9b,Shepherd's Bush Boutique Hotel,5,London,W12 7JS,-0.225979,51.505688
620cd587aa28c13b79513f9e,Shepherds Bush Club,5,London,W12 8EP,-0.234369,51.500375
620cd587aa28c13b79513fa1,Shepherds Bush Empire,5,London,W12 8TT,-0.224435,51.503525
620cd587aa28c13b79513fa4,Shepherds Bush Families Project - 1st Floor,5,London,W12 8AP,-0.223016,51.505932
620cd587aa28c13b79513fad,Shepherd's Bush Post Office,5,London,W12 0NR,-0.23784600198269,51.5066146850586
620cd587aa28c13b79513fb0,Shepherds Sandwich Bar,5,London,NW10 6RA,-0.237282,51.529797
620cd587aa28c13b79513fb9,Shikumen,5,London,W12 8QE,-0.224843,51.50453
620cd587aa28c13b79513fbc,Shilpa Restaurant,3,London,W6 0RA,-0.235774,51.493094
620cd587aa28c13b79513fbf,Shiv News,3,London,W12 9LL,-0.251246,51.502885
620cd587aa28c13b79513fc5,Shot Espresso Fulham,5,London,SW6 1BE,-0.197867,51.480828
620cd587aa28c13b79513fc8,Shu Xiang Ge,4,London,W12 8DH,-0.225283,51.502855
620cd587aa28c13b79513fcb,Shuro Shirin,5,London,SW6 1AA,-0.196672,51.48009
620cd587aa28c13b79513fd1,Simmons Bar,5,London,SW6 1LY,-0.199448,51.481265
620cd587aa28c13b79513fd4,Simple Foods,5,London,W6 9PH,-0.223763,51.490422
620cd587aa28c13b79513fda,Simya Korean Restaurant,2,London,SW6 1NN,-0.201912,51.484918
620cd587aa28c13b79513fdd,Sinclair House Montessori Nursery School,5,London,SW6 6DA,-0.210856,51.477924
620cd587aa28c13b79513fe0,Sinclair House Montessori Nursery School,5,London,SW6 6AU,-0.210477,51.478035
620cd587aa28c13b79513fe3,Sinclair House School,5,London,SW6 3JJ,-0.20997400581837,51.4699249267578
620cd587aa28c13b79513fe6,Sirrgista Bros,5,London,W12 8AA,-0.223064,51.505078
620cd587aa28c13b79513ff5,Smokemart,5,London,W6 9JG,-0.230327,51.492392
620cd587aa28c13b79514001,So Choux,5,London,SW6 4TJ,-0.2036259,51.4737223
620cd587aa28c13b79514004,So Souffle Cafe,5,London,SW6 5UL,-0.2017795,51.4771023
620cd587aa28c13b79514010,Som Tam Thai Restaurant,3,London,W12 9AU,-0.242337,51.502239
620cd587aa28c13b79514034,Sri Sai Convenience Store,5,London,W6 9DB,-0.228596,51.490234
620cd587aa28c13b79514037,SSK Superstore,5,London,SW6 7SX,-0.203546,51.484746
620cd587aa28c13b7951403d,St Clements,5,London,SW6 4SR,-0.197511,51.473053
620cd587aa28c13b79514040,St Elmo Fish Bar,5,London,W12 9EA,-0.245012,51.504249
620cd587aa28c13b79514049,St Paul's Hotel The Melody Restaurant,5,London,W14 0QL,-0.213799,51.494002
620cd587aa28c13b7951404c,St Peter's Church Of England Primary School,5,London,W6 9BA,-0.240783,51.492063
620cd587aa28c13b7951404f,St Stephens Primary School,5,London,W12 8EA,-0.22805,51.504317
620cd587aa28c13b79514055,Star Cafe,2,London,W6 8NH,-0.218287,51.485312
620cd587aa28c13b7951405b,Star Hotel,5,London,W6 7LP,-0.222327,51.497702
620cd587aa28c13b7951405e,Star Mini Market,3,London,W6 0EU,-0.234535,51.498336
620cd587aa28c13b79514061,Starbucks,5,London,SW6 4RN,-0.209943,51.469242
620cd587aa28c13b79514064,Starbucks,5,London,W12 8LP,-0.219696,51.504596
620cd587aa28c13b7951407c,Steam,4,London,W6 9JT,-0.233318,51.492536
620cd587aa28c13b79514082,Stella McCartney Ltd,5,London,W11 4BE,-0.217435,51.510101
620cd587aa28c13b79514085,Stenton Family Butcher,4,London,W6 0DH,-0.230687,51.496866
620cd587aa28c13b79514088,Step By Step Day Nursery,4,London,W6 9JA,-0.228796,51.491757
620cd587aa28c13b7951408b,Step By Step Nursery,1,London,W6 7BJ,-0.216727,51.495405
620cd587aa28c13b7951408e,Stop-N-Shop Fulham Ltd,4,London,SW6 6TJ,-0.215558,51.476629
620cd587aa28c13b7951409d,Subway,5,London,W6 9HR,-0.225646,51.492753
620cd587aa28c13b795140a0,Subway,4,London,W6 0QU,-0.232831,51.492834
620cd587aa28c13b795140a3,Subway,5,London,W12 7JP,-0.225527,51.505475
620cd587aa28c13b795140a6,Subway,5,London,W12 8PH,-0.219407,51.503881
620cd587aa28c13b795140a9,Subway,5,London,SW6 1NR,-0.200597,51.483189
620cd587aa28c13b795140af,Sufi Restaurant,4,London,W12 9BJ,-0.243803,51.503835
620cd587aa28c13b795140b5,Sukho Thai Cuisine,4,London,SW6 5HJ,-0.20651,51.474531
620cd587aa28c13b795140b8,Sulgrave Club,5,London,W12 8EU,-0.241004,51.499081
620cd587aa28c13b795140bb,Sulivan Stores,3,London,SW6 3BX,-0.198368,51.470323
620cd587aa28c13b795140be,Super Choice Newsagents,4,London,W6 9PH,-0.223763,51.490422
620cd587aa28c13b795140c1,Superdrug,Exempt,London,SW6 1NN,-0.201912,51.484918
620cd587aa28c13b795140c4,Superdrug,5,London,W12 8LR,-0.220969,51.504839
620cd587aa28c13b795140cd,Superwines,4,London,W12 7DA,-0.2346,51.511556
620cd587aa28c13b795140d0,Sushi Circle,5,London,SW6 2UQ,-0.191628,51.471083
620cd587aa28c13b795140d3,Sushi Daily,5,London,SW6 1LU,-0.199037,51.480018
620cd587aa28c13b795140d6,Sushi Daily,5,London,SW6 4TJ,-0.20268100500107,51.4737701416016
620cd587aa28c13b795140df,Sushi54 Limited,5,London,W12 8HJ,-0.2328687,51.5013692
620cd587aa28c13b795140e5,Suzu House By Makiko Sano,2,London,W6 7JP,-0.2192896,51.4934033
620cd587aa28c13b795140e8,Suzys Newsagent,Exempt,London,W12 7DA,-0.2346,51.511556
620cd587aa28c13b795140eb,Swallow Coffee Shop,4,London,W12 8EG,-0.2274159938097,51.5020866394043
620cd587aa28c13b795140ee,Swan Food Store,4,London,W11 4SX,-0.215969,51.507794
620cd587aa28c13b795140f1,Swanscombe News,Exempt,London,W11 4SX,-0.215969,51.507794
620cd587aa28c13b795140f4,Sweet And Tart Ltd,4,London,NW10 6UF,-0.242066,51.5295
620cd587aa28c13b79514100,T K Maxx,Exempt,London,W6 9HW,-0.227717,51.492478
620cd587aa28c13b79514109,TAA' MINI,AwaitingInspection,London,SW6 5HE,-0.2051271,51.4758316
620cd587aa28c13b7951410c,Taco Bell Fulham,5,London,SW6 1AE,-0.195974,51.480268
620cd587aa28c13b7951410f,Taco Bell Hammersmith,5,London,W6 0QW,-0.229925,51.492745
620cd587aa28c13b79514115,Tacos MX,AwaitingInspection,London,SW6 7NR,-0.21426199376583,51.4825172424316
620cd587aa28c13b79514118,Tai Buffet,4,London,W12 8LR,-0.220969,51.50484
620cd587aa28c13b79514127,Tastehead Ltd,AwaitingInspection,London,SW6 7RQ,-0.209371,51.481264
620cd587aa28c13b7951412a,Tasty Wings,4,London,W12 7DA,-0.2346,51.511556
620cd587aa28c13b7951412d,Tell Your Friends,5,London,SW6 4SW,-0.196775,51.473464
620cd587aa28c13b79514130,Tendido Cuatro,5,London,SW6 4LY,-0.204387,51.472133
620cd587aa28c13b79514133,Tesca Fine Food & Wine,3,London,W12 7LL,-0.234083,51.506656
620cd587aa28c13b79514136,Tesco,5,London,W6 7NL,-0.224267,51.495627
620cd587aa28c13b79514139,Tesco,5,London,SW6 6BQ,-0.212604,51.481089
620cd587aa28c13b7951413c,Tesco,5,London,W12 9AS,-0.243035,51.503194
620cd587aa28c13b79514142,Tesco Express,5,London,W14 9PP,-0.205252,51.488612
620cd587aa28c13b79514145,Tesco Express,5,London,SW6 7HX,-0.206066,51.481097
620cd587aa28c13b7951414b,Tesco Express,5,London,W12 8LH,-0.227612,51.505579
620cd587aa28c13b7951414e,Tesco Express,5,London,W6 9NH,-0.240821,51.493341
620cd587aa28c13b79514151,Tesco Express,5,London,SW6 6TD,-0.214817,51.475683
620cd587aa28c13b79514154,Tesco Express,5,London,W12 8QP,-0.225661,51.502393
620cd587aa28c13b79514157,Tesco Express,5,London,SW6 2EL,-0.189043,51.478192
620cd587aa28c13b7951415a,Tesco Express,5,London,W14 8UZ,-0.210786,51.495171
620cd587aa28c13b7951415d,Tesco Express,5,London,SW6 5SA,-0.206834,51.474724
620cd587aa28c13b79514169,Tesco Staff Restaurant,4,London,W6 7NL,-0.224267,51.495627
620cd587aa28c13b7951416f,Texaco Service Station,5,London,W10 6AH,-0.228738,51.520766
620cd587aa28c13b79514175,Thai Rice,3,London,W14 0HJ,-0.221685,51.49977
620cd587aa28c13b79514178,Thai Smile Supermarket,4,London,W6 9NH,-0.240821,51.493341
620cd587aa28c13b7951417b,Thai Square,5,London,SW6 1ES,-0.194503,51.479949
620cd587aa28c13b7951417e,Thai Terminal,3,London,W6 0SP,-0.239598,51.493682
620cd587aa28c13b79514181,Thaiphoon,3,London,SW6 2UL,-0.191818,51.472471
620cd587aa28c13b79514184,The Aetherius Society Health Food Shop,4,London,SW6 5HA,-0.203929,51.476469
620cd587aa28c13b79514187,The Albion,3,London,W14 0QL,-0.213799,51.494003
620cd587aa28c13b7951418d,The Anchor,1,London,SW6 7SX,-0.203546,51.484746
620cd587aa28c13b79514190,The Askew,4,London,W12 9DS,-0.243986,51.506571
620cd587aa28c13b79514196,The Atlas,5,London,SW6 1RX,-0.195997,51.485898
620cd587aa28c13b79514199,The Bagel Bakery,5,London,NW10 6UG,-0.2421092,51.5285578
620cd587aa28c13b7951419c,The Bedford Arms,5,London,SW6 7RQ,-0.209372,51.481265
620cd587aa28c13b795141ae,The Caketail Club,5,London,W6 0SP,-0.239598,51.493682
620cd587aa28c13b795141b7,The Chancellors,4,London,W6 9RL,-0.227115,51.488692
620cd587aa28c13b795141c0,The Clarence,5,London,W14 9PP,-0.205252,51.488612
620cd587aa28c13b795141c9,The Colton Arms,5,London,W14 9SD,-0.210529,51.48666
620cd587aa28c13b795141d2,The Crepe Factory,5,London,W14 9NS,-0.202564,51.485909
620cd587aa28c13b795141d8,The Deli-Bar At W14,5,London,W14 9JL,-0.206315,51.489068
620cd587aa28c13b795141db,The Dove,5,London,W6 9TA,-0.236576,51.490616
620cd587aa28c13b795141e1,The Duchess Of Cambridge,4,London,W6 0XF,-0.244318,51.497179
620cd587aa28c13b795141e4,The Durell,5,London,SW6 5SB,-0.207963,51.473833
620cd587aa28c13b795141e7,The Eagle,5,London,W12 9AZ,-0.239595,51.500867
620cd587aa28c13b795141ea,The Elder Press LLP,5,London,W6 9TJ,-0.2421325,51.4901597
620cd587aa28c13b795141ed,The Farm,5,London,W12 8NR,-0.231368,51.506085
620cd587aa28c13b795141f6,The Fishmongers Kitchen,1,London,W6 7LP,-0.222311,51.497756
620cd587aa28c13b79514208,The Gazana,AwaitingInspection,London,SW6 1NN,-0.201912,51.484918
620cd587aa28c13b7951420b,The Gentlemen Baristas Hammersmith,4,London,W6 8DA,-0.2197721,51.492853
620cd587aa28c13b7951420e,The Ginger Pig,5,London,W12 9AU,-0.242337,51.502239
620cd587aa28c13b79514214,The Good Shepherd R C Primary School,5,London,W12 9BY,-0.24557,51.502863
620cd587aa28c13b7951421d,The Gourmet,5,London,SW6 4SE,-0.192353,51.476418
620cd587aa28c13b79514223,The Green Public House,5,London,W12 7JP,-0.225527,51.505475
620cd587aa28c13b79514226,The Grill House,5,London,W14 9NX,-0.203566,51.486814
620cd587aa28c13b7951422f,The Hammersmith Ram,5,London,W6 9HW,-0.227717,51.492478
620cd587aa28c13b7951423b,The Hill Food Company,4,London,NW10 6UG,-0.24258099496365,51.5288696289063
620cd587aa28c13b7951423e,The Hive,5,London,SW6 5RX,-0.206207,51.47565
620cd587aa28c13b79514241,The Hoarder,4,London,SW6 1TS,-0.197686,51.486886
620cd587aa28c13b79514256,The Jameson,5,London,W14 0HR,-0.216241,51.497133
620cd587aa28c13b7951425c,The Kebab Machine,1,London,W6 7PB,-0.222856,51.497827
620cd587aa28c13b7951425f,The Kitchen,4,London,W12 8DH,-0.225283,51.502855
620cd587aa28c13b79514262,The Learning-Zone Kitchen,5,London,W6 9RS,-0.225307,51.488512
620cd587aa28c13b79514265,The Lillie Langtry,5,London,SW6 1UE,-0.19745,51.486289
620cd587aa28c13b79514268,The London Swiss Fondue Club,AwaitingInspection,London,SW6 4SQ,-0.1934102,51.4757057
620cd587aa28c13b7951426e,The Madisson Nursery,5,London,SW6 5SF,-0.208852,51.47319
620cd587aa28c13b79514271,The Magic Cafe,5,London,SW6 6TB,-0.214318,51.475189
620cd587aa28c13b7951427d,The Old City Arms,5,London,W6 9DA,-0.228962,51.48935
620cd587aa28c13b79514280,The Old Oak,5,London,W14 9NX,-0.203566,51.486814
620cd587aa28c13b7951428f,The Pavilion,5,London,W12 0HQ,-0.227712,51.518583
620cd587aa28c13b79514295,The Pocket Watch,5,London,W12 0NS,-0.239127,51.506651
620cd587aa28c13b79514298,The Power Yoga Company,5,London,SW6 4EH,-0.20457,51.474078
620cd587aa28c13b7951429b,The Prince,5,London,SW6 1TU,-0.196984,51.487145
620cd587aa28c13b795142a4,The Raven,5,London,W6 0SA,-0.244752,51.494137
620cd574aa28c13b79502f3d,Falcon News,5,London,SE9 2RL,0.08122000098228,51.4591217041016
620cd574aa28c13b79502f46,Falconwood Food & Wine,4,London,SE9 2RL,0.08122,51.45912
620cd574aa28c13b79503006,Golden Star,3,London,SE9 2RL,0.081118,51.459121
620cd574aa28c13b79503168,J & K's Wine Bar,3,London,SE9 2RL,0.081118,51.459121
620cd575aa28c13b7950335d,Marlborough Court Care Centre,5,London,SE28 8QB,0.12143,51.511025
620cd575aa28c13b79503405,Morley's,AwaitingInspection,London,SE9 2RL,0.081118,51.459121
620cd575aa28c13b7950349b,Nirvana Authentic Indian Cuisine,4,London,SE9 2RL,0.081118,51.459121
620cd575aa28c13b79503549,Oyla Ltd,Exempt,London,SE28 8SL,0.127315,51.5121146
620cd575aa28c13b79503965,The Contract Dining Company At Willow Bank Primary School,5,London,SE2 9XB,0.125247,51.497376
620cd575aa28c13b79503a10,The Ness Cafe,5,London,SE2 9AQ,0.133478,51.506094
620cd575aa28c13b79503a82,Toddleswood Pre-School At Willowbank School,5,London,SE2 9XB,0.125247,51.497376
620cd575aa28c13b79503ab5,Turo Turo,5,London,SE2 9UL,0.12503699958324,51.4984245300293
620cd575aa28c13b79503b9f,036 RnB,4,London,NW2 3JX,-0.211542,51.553129
620cd575aa28c13b79503ba5,244 Cafe,3,London,NW10 4TD,-0.240915,51.53317
620cd575aa28c13b79503bb1,A A Accra Market,3,London,NW10 9NH,-0.25017,51.547129
620cd575aa28c13b79503bb4,A Forat Supermarket,4,London,NW2 3HY,-0.214834,51.556003
620cd575aa28c13b79503bba,A P Food Express,4,London,NW10 2PR,-0.229816,51.54722
620cd575aa28c13b79503bc6,A. F. G. Bazaar,4,London,NW10 9NP,-0.24835,51.547948
620cd575aa28c13b79503bd2,Abbey Point Cafe & Hotel,5,London,NW10 7DD,-0.275306,51.534984
620cd575aa28c13b79503bdb,Abda Sweet Marka Caden,4,London,NW10 4SP,-0.244174,51.535394
620cd575aa28c13b79503be1,Abilities Development Ltd,5,London,NW9 8NL,-0.2694494,51.5713455
620cd575aa28c13b79503be7,Abyssinia Restaurant,4,London,NW2 3JX,-0.211542,51.553129
620cd575aa28c13b79503bed,Aces Desserts,4,London,NW9 9HN,-0.279958,51.585212
620cd575aa28c13b79503bf0,Ackee Tree Grocers,5,London,NW10 8UT,-0.25404,51.536837
620cd575aa28c13b79503bf3,Action on Hearing Loss,5,London,NW6 6RY,-0.203096,51.535393
620cd575aa28c13b79503bf9,Adams Grill,4,London,NW6 5PS,-0.197544,51.528455
620cd575aa28c13b79503c08,Afghan Bakery,1,London,NW10 9EE,-0.249613,51.547751
620cd575aa28c13b79503c14,AK Food & Halal Meat,5,London,NW10 9EJ,-0.249053,51.548057
620cd575aa28c13b79503c17,Akrms Cash & Carry,3,London,NW6 7JN,-0.199346,51.542718
620cd575aa28c13b79503c1a,Al Koofa Mini Market (Koofa Limited),3,London,NW10 2SB,-0.235089,51.547371
620cd575aa28c13b79503c20,Al Sham Market,2,London,NW10 2NX,-0.236777,51.548098
620cd575aa28c13b79503c23,Al Sham Roastery,AwaitingInspection,London,NW10 2RX,-0.23716,51.547878
620cd575aa28c13b79503c26,Al Wadi Market,3,London,W9 2EX,-0.196849,51.527798
620cd575aa28c13b79503c29,Al-Amirat,1,London,NW10 2SU,-0.227914,51.547182
620cd575aa28c13b79503c2c,Aldi,5,London,NW9 9HN,-0.279958,51.585212
620cd575aa28c13b79503c2f,Aldi Stores Limited,5,London,NW9 0AW,-0.26016899943352,51.5867004394531
620cd575aa28c13b79503c32,Aleppo Grill,5,London,NW10 2QD,-0.226525,51.547656
620cd575aa28c13b79503c3b,Alhambra Palace (Community Coffee Shop),4,London,NW10 4TS,-0.244582,51.536066
620cd575aa28c13b79503c44,Alishba News & Wines,4,London,NW10 4SJ,-0.246529,51.535682
620cd575aa28c13b79503c47,Aljazira General Store,1,London,NW10 9NP,-0.24835,51.547948
620cd575aa28c13b79503c50,Alma's,4,London,NW10 4JE,-0.242474,51.53723
620cd575aa28c13b79503c6e,Al-Saha,4,London,NW6 7HY,-0.197629,51.54128
620cd575aa28c13b79503c71,Al-Sultan,1,London,NW9 9DT,-0.275032,51.585687
620cd575aa28c13b79503c74,Alwan Supermarket,4,London,NW9 9DT,-0.275033,51.585688
620cd575aa28c13b79503c77,Alwan Sweets & Nuts,4,London,NW9 9DT,-0.275033,51.585688
620cd575aa28c13b79503c86,Amigos Burgers and Shakes,5,London,NW10 8QD,-0.253225,51.540053
620cd575aa28c13b79503c89,Amnen Grill,5,London,NW10 2RX,-0.237161,51.547879
620cd575aa28c13b79503c8f,Anand Express Limited,2,London,NW9 9HH,-0.277571,51.585752
620cd575aa28c13b79503c95,Angies,4,London,NW2 5SJ,-0.223887,51.547993
620cd575aa28c13b79503c98,Angie's,4,London,NW10 4TR,-0.243568,51.53544
620cd575aa28c13b79503c9b,Angies Pharmacy,Exempt,London,NW10 4AG,-0.252531,51.539719
620cd575aa28c13b79503c9e,Anglo Asian Cash & Carry,4,London,NW9 8JB,-0.263082,51.579207
620cd575aa28c13b79503cb0,Anna Stores,5,London,NW10 5PA,-0.232948,51.531899
620cd575aa28c13b79503cb9,Antek Deli,3,London,NW10 2QD,-0.226525,51.547656
620cd575aa28c13b79503cc2,Apna Bazaar Supermarket,4,London,NW10 2PJ,-0.233153,51.54745
620cd575aa28c13b79503cc8,Arada Mini Market,5,London,NW6 5PS,-0.197544,51.528456
620cd575aa28c13b79503cce,Arbil City Restaurant,5,London,NW6 7HY,-0.197629,51.54128
620cd575aa28c13b79503ce0,Ariana 2 Restaurant,4,London,NW6 7JN,-0.199346,51.542718
620cd575aa28c13b79503ce3,Arista Bar,5,London,NW9 8SN,-0.261903,51.573049
620cd575aa28c13b79503d01,Ashford Place,4,London,NW2 6TU,-0.219013,51.556462
620cd575aa28c13b79503d0a,Asian Restaurant & Curry House,5,London,NW6 5SB,-0.192038,51.536428
620cd575aa28c13b79503d0d,Asmak Albasha,4,London,NW2 3JR,-0.212686,51.554118
620cd575aa28c13b79503d16,Assal 2,4,London,NW10 5NL,-0.232454,51.532008
620cd575aa28c13b79503d19,Atlas Food (Landmark),4,London,NW9 8AB,-0.262386,51.580439
620cd575aa28c13b79503d28,Ayan Cafetaria Limited,3,London,NW10 9NP,-0.248437,51.547921
620cd575aa28c13b79503d2e,B & M Retail Ltd,5,London,NW10 2JH,-0.245152,51.54861
620cd575aa28c13b79503d31,Backyard Lebanese Cafe & Shisha Lounge,4,London,NW9 8SD,-0.262658,51.564229
620cd575aa28c13b79503d34,Bacovia,5,London,NW2 3HY,-0.214834,51.556003
620cd575aa28c13b79503d37,Bacovia Supermarket & Cafe,4,London,NW10 0AD,-0.251142,51.560156
620cd575aa28c13b79503d40,Bagel Delight Bakery,5,London,NW2 3HY,-0.214834,51.556003
620cd575aa28c13b79503d43,Bagel with Shakes / Tazah Simply Fresh,5,London,NW10 9EE,-0.249613,51.547751
620cd575aa28c13b79503d49,Baladna,3,London,NW10 2EY,-0.238155,51.548658
620cd575aa28c13b79503d4f,Bambino,3,London,NW10 0EA,-0.259175,51.563234
620cd575aa28c13b79503d58,Bansuri Dabeli,5,London,NW9 8UG,-0.263457,51.583017
620cd575aa28c13b79503d5b,Baps Shri Swaminarayan Mandir,4,London,NW10 8LD,-0.261665,51.547507
620cd575aa28c13b79503d5e,Bar Lula's,5,London,NW10 2QA,-0.227815,51.547495
620cd575aa28c13b79503d6a,Barretts,3,London,NW2 3HP,-0.21728,51.558001
620cd575aa28c13b79503d6d,Barril,3,London,NW10 4TR,-0.243624,51.535467
620cd575aa28c13b79503d70,Basharow Emporium Ltd,2,London,NW10 9NP,-0.248437,51.547921
620cd575aa28c13b79503d76,Bawarchi,5,London,NW10 3JJ,-0.218124,51.532349
620cd575aa28c13b79503d8e,Beer + Burger,5,London,NW2 4QY,-0.221278,51.5487
620cd575aa28c13b79503d91,Behesht Restaurant,4,London,NW10 5NL,-0.232454,51.532008
620cd575aa28c13b79503d94,Beirut Nights,2,London,NW10 7RB,-0.269251,51.53003
620cd575aa28c13b79503d9a,Beit El Zaytoun,5,London,NW10 7AE,-0.263177,51.533933
620cd575aa28c13b79503d9d,Bel & Nev,4,London,NW10 5RX,-0.21953,51.53398
620cd575aa28c13b79503da0,Bella Pizza,5,London,NW9 8JU,-0.262567,51.573041
620cd575aa28c13b79503da6,Bellissima Ristorante,5,London,NW2 7JL,-0.235785,51.568523
620cd575aa28c13b79503db2,Best Price,1,London,NW10 2UN,-0.24904,51.551771
620cd575aa28c13b79503db5,Best Price Supermaket,4,London,W10 4AE,-0.216276,51.529065
620cd575aa28c13b79503dbb,BFC,3,London,NW10 4AE,-0.25096,51.539309
620cd575aa28c13b79503dbe,Bgrill Portugese Cuisine,5,London,NW10 2PN,-0.232264,51.54732
620cd575aa28c13b79503dca,Bhavna Sweet Mart,5,London,NW10 2RY,-0.236065,51.547503
620cd575aa28c13b79503dd0,Big Al's Cafe Grill,5,London,NW10 9EP,-0.248259,51.54845
620cd575aa28c13b79503dd3,Big Ben Fish Bar,5,London,NW10 8QD,-0.253225,51.540053
620cd575aa28c13b79503dd6,Big Ben Fisheries,2,London,NW10 4NA,-0.248586,51.537313
620cd575aa28c13b79503dd9,Big Bite,4,London,NW2 4QU,-0.221677,51.548832
620cd575aa28c13b79503ddc,Big Coffee,1,London,NW6 5PS,-0.19754399359226,51.5284576416016
620cd575aa28c13b79503de2,Bigger Bite,AwaitingInspection,London,NW10 4JH,-0.244946,51.536719
620cd575aa28c13b79503de5,Bijou Cafe Ltd,5,London,NW2 4RS,-0.22013500332832,51.5495300292969
620cd575aa28c13b79503de8,Bilal Halal Butchers,3,London,NW10 4SL,-0.245355,51.535826
620cd575aa28c13b79503e00,Blakes Coffee House,4,London,NW10 4NJ,-0.247232,51.536133
620cd575aa28c13b79503e0f,Blue Mountain Peak,4,London,NW10 4AB,-0.249384,51.538287
620cd575aa28c13b79503e12,Blue Orchid,3,London,NW2 5SJ,-0.223887,51.547993
620cd575aa28c13b79503e27,Bokor,5,London,NW6 6HY,-0.193282,51.537428
620cd575aa28c13b79503e30,Bombay Spice,4,London,NW9 9HJ,-0.278319,51.585439
620cd575aa28c13b79503e3f,Boots,5,London,NW9 9ED,-0.277474,51.585265
620cd575aa28c13b79503e45,Booty Food & Wine,4,London,NW10 0AD,-0.251142,51.560156
620cd575aa28c13b79503e4e,Brahma Kumaris Community Centre,5,London,NW10 2HH,-0.236683,51.544571
620cd575aa28c13b79503e54,Brasa Bull,4,London,NW10 2RX,-0.237161,51.547879
620cd575aa28c13b79503e5a,Brazil Avenue,4,London,NW10 4SY,-0.241887,51.533787
620cd575aa28c13b79503e5d,Brazilian Shop,4,London,NW10 2QG,-0.225238,51.547753
620cd575aa28c13b79503e6f,Brent River College (Formerly Stag Lane PRU K3),5,London,NW9 9AE,-0.26618999242783,51.5889472961426
620cd575aa28c13b79503e78,Bridge Food & Wine,5,London,NW10 8TX,-0.255777,51.537402
620cd575aa28c13b79503e8d,Bright's Chemist,Exempt,London,NW10 8QD,-0.253225,51.540053
620cd575aa28c13b79503e9c,Brooks Butchers,5,London,NW10 3ND,-0.21851199865341,51.5338401794434
620cd575aa28c13b79503ea5,Bruce Road Food and Wine,4,London,NW10 8RG,-0.2588933,51.5436006
620cd575aa28c13b79503ea8,Bub Al Hara Sweets,AwaitingInspection,London,NW10 2SB,-0.2352239,51.5474018
620cd575aa28c13b79503eb1,Bucharest,4,London,NW9 8RS,-0.262583,51.564678
620cd575aa28c13b79503ec0,Bum Buu,4,London,NW10 4UP,-0.247276,51.533876
620cd575aa28c13b79503ecc,Burger King,5,London,NW2 3HY,-0.214834,51.556003
620cd575aa28c13b79503ed5,Busy Bees,AwaitingInspection,London,NW10 3UN,-0.2422726,51.5404035
620cd575aa28c13b79503ed8,Butcher's Boy,5,London,NW10 9NP,-0.24835,51.547948
620cd575aa28c13b79503ee1,Buy Wise,4,London,NW10 2PU,-0.2287,51.547374
620cd575aa28c13b79503ee7,C & D Food And Wine Stores,4,London,NW10 5ET,-0.225543,51.533604
620cd575aa28c13b79503ef0,Cafe - Carwa Banadir Business Centre,2,London,NW10 4SL,-0.245355,51.535826
620cd575aa28c13b79503ef6,Cafe Du Coin,4,London,NW10 8TX,-0.2552904,51.5375041
620cd575aa28c13b79503ef9,Cafe Express,4,London,NW10 2DS,-0.24426,51.549298
620cd575aa28c13b79503efc,Cafe Florya,5,London,NW9 8SL,-0.261973,51.574237
620cd575aa28c13b79503f08,Cafe Prego,4,London,NW2 3JG,-0.213744,51.555069
620cd575aa28c13b79503f0b,Cafe Rossio,3,London,NW10 5NL,-0.232454,51.532008
620cd575aa28c13b79503f17,Caffeine,4,London,NW6 7QE,-0.203207,51.546114
620cd575aa28c13b79503f1a,Cake Box,5,London,NW9 9HH,-0.277571,51.585752
620cd575aa28c13b79503f38,Camilia Lounge,2,London,NW10 4JE,-0.242475,51.537231
620cd575aa28c13b79503f41,Cantinho dos Manos,3,London,NW10 1NU,-0.238109,51.552839
620cd575aa28c13b79503f44,Capital Food,1,London,NW2 3HT,-0.215855,51.556801
620cd575aa28c13b79503f4d,Card Factory,5,London,NW6 6JE,-0.193951,51.538004
620cd575aa28c13b79503f5c,Carlton Lounge,4,London,NW9 0BH,-0.26305,51.583452
620cd575aa28c13b79503f6e,Casa De Carnes Brasil,4,London,NW10 5NL,-0.232454,51.532008
620cd575aa28c13b79503f71,Casbah Coffee,4,London,NW2 3JG,-0.213703,51.555033
620cd575aa28c13b79503f74,Cash Newsagent Limited (Harlesden Newsagents),4,London,NW10 4JJ,-0.245989,51.53696
620cd575aa28c13b79503f7a,Cashino Gaming Ltd,5,London,NW10 0AD,-0.2509203,51.5600734
620cd575aa28c13b79503f7d,Catto Ltd Pharmacy,Exempt,London,NW10 4NS,-0.246483,51.536122
620cd575aa28c13b79503f9e,Chana Chemist,Exempt,London,NW10 2PJ,-0.233153,51.54745
620cd575aa28c13b79503fa1,Chana Chemist,Exempt,London,NW10 4SL,-0.245355,51.535826
620cd575aa28c13b79503fa4,Charcoal Kebab 49,5,London,NW2 3HY,-0.214834,51.556003
620cd575aa28c13b79503fa7,Chasing Dragon,4,London,NW10 4TR,-0.243568,51.53544
620cd575aa28c13b79503fb9,Chicken Cottage,4,London,NW2 4QR,-0.220616,51.549778
620cd575aa28c13b79503fbc,Chicken Cottage,5,London,NW10 4SJ,-0.246529,51.535682
620cd575aa28c13b79503fc2,Chicken Cottage/ Kebab Cottage,4,London,NW10 5RP,-0.219216,51.533553
620cd575aa28c13b79503fc5,Chicken Delight,5,London,NW10 9NH,-0.25017,51.547129
620cd575aa28c13b79503fce,Chicken Land,5,London,NW9 8RS,-0.262583,51.564678
620cd575aa28c13b79503fd7,Chicken Valley,4,London,NW9 9EL,-0.280415,51.584598
620cd575aa28c13b79503fda,Chicken Wonder,2,London,NW10 2PJ,-0.233153,51.54745
620cd575aa28c13b79503fe0,Chico's,5,London,NW2 3JG,-0.213703,51.555033
620cd575aa28c13b79503fe3,Chilli Massala,2,London,NW9 0BY,-0.26541,51.584422
620cd575aa28c13b79503fe6,Chinese Health Clinic,4,London,NW10 2SL,-0.230116,51.546919
620cd575aa28c13b79503fe9,Chinese Health Clinic,4,London,NW10 4TS,-0.244582,51.536066
620cd575aa28c13b79503fec,Chinese Healthcare Centre,5,London,NW10 3ND,-0.21854,51.533875
620cd575aa28c13b79503fef,Chinese Medical Centre of London,4,London,NW6 7QB,-0.202135,51.545135
620cd575aa28c13b79503ff8,Choice Restaurant (Afbarwaqo Restaurant Ltd),0,London,NW10 4SP,-0.244174,51.535394
620cd575aa28c13b79503ffb,Chorum Kebab House,5,London,NW10 2JR,-0.241168,51.548317
620cd575aa28c13b79504004,Church Newsagents,5,London,NW9 8JB,-0.263082,51.579208
620cd575aa28c13b79504010,Ciel Tapas,5,London,NW10 4SY,-0.241887,51.533787
620cd575aa28c13b79504025,Clockwork Pharmacy,Exempt,London,NW10 1QJ,-0.251517,51.559784
620cd575aa28c13b7950402b,Club Marina,4,London,NW9 0BG,-0.264005,51.583781
620cd576aa28c13b7950402e,CNWL Kingswood Centre,5,London,NW9 9QY,-0.28181999921799,51.5905723571777
620cd576aa28c13b79504031,Coco Bs / The Kidz Clean Kitchen,AwaitingInspection,London,NW10 2PN,-0.2318678,51.5472883
620cd576aa28c13b7950403d,Cofetaria Pinocchio,4,London,NW9 8UG,-0.263456,51.583017
620cd576aa28c13b79504040,Coffee Romana,2,London,NW10 4UX,-0.24655,51.533254
620cd576aa28c13b79504052,College Park Petrol Station,5,London,NW10 5HD,-0.22623,51.535601
620cd576aa28c13b7950405b,Comptoir Mezze,4,London,NW10 5RX,-0.219531,51.53398
620cd576aa28c13b79504076,Co-op,5,London,NW2 4QR,-0.220616,51.549778
620cd576aa28c13b79504079,Co-Operative Supermarket,5,London,NW9 8JS,-0.262543,51.573679
620cd576aa28c13b7950407f,Copacabana Gourmet Pizza,5,London,NW2 3JX,-0.211542,51.553129
620cd576aa28c13b7950408b,Corner Shop,1,London,NW10 4AG,-0.252531,51.539719
620cd576aa28c13b79504091,Coronation Food and Wine,5,London,NW10 4EN,-0.243675,51.540144
620cd576aa28c13b7950409a,Costa,5,London,NW10 4SL,-0.245355,51.535826
620cd576aa28c13b7950409d,Costa,5,London,NW2 3HT,-0.215855,51.556801
620cd576aa28c13b795040a6,Costa,5,London,NW2 4QU,-0.221677,51.548832
620cd576aa28c13b795040a9,Costa,5,London,NW2 3JR,-0.212686,51.554118
620cd576aa28c13b795040b2,Costa Coffee,5,London,NW10 3NS,-0.219617,51.535087
620cd576aa28c13b795040b8,Costa Coffee,5,London,NW10 1QR,-0.252673,51.560079
620cd576aa28c13b795040bb,Costa Coffee,5,London,NW10 2QD,-0.226743,51.547613
620cd576aa28c13b795040c4,Costa Coffee,5,London,NW9 9HN,-0.279958,51.585212
620cd576aa28c13b795040c7,Costa Coffee,5,London,NW6 5HY,-0.190649,51.53655
620cd576aa28c13b795040ca,Costa Coffee,5,London,NW6 6NH,-0.205253,51.535885
620cd576aa28c13b795040d6,Costcutter,2,London,NW9 0BT,-0.26467,51.584132
620cd576aa28c13b795040dc,CostCutter (B&C -Ghunfur Retail Ltd),4,London,NW10 2EN,-0.240419,51.548674
620cd576aa28c13b795040e8,Costcutters,4,London,NW10 0EA,-0.259175,51.563234
620cd576aa28c13b795040ee,Cozia,5,London,NW9 8JU,-0.262567,51.573041
620cd576aa28c13b795040f4,Craven Park Off Licence,5,London,NW10 8QD,-0.253225,51.540053
620cd576aa28c13b795040f7,Craven Park Service Station,5,London,NW10 9PX,-0.254014,51.542789
620cd576aa28c13b795040fa,Crazy Bakery (Cafe and Bakery),5,London,NW10 5NY,-0.229126,51.530457
620cd576aa28c13b79504103,Cricklewood Halal Meat,1,London,NW2 3HT,-0.215855,51.556801
620cd576aa28c13b79504106,Cricklewood Islamic Bookshop (Confectionery),5,London,NW2 3HS,-0.2165837,51.5575155
620cd576aa28c13b79504121,CUORE (ITALIAN DELI& COFFEE SHOP),5,London,NW2 5HH,-0.22380100190639,51.5431632995605
620cd576aa28c13b79504124,Curry Nights,5,London,NW10 3JH,-0.217651,51.531892
620cd576aa28c13b79504130,D & H Supermarket,3,London,NW9 8LU,-0.262134,51.574941
620cd576aa28c13b79504142,Damas Nuts,3,London,NW2 3HS,-0.2164585,51.5573967
620cd576aa28c13b79504145,Dana House,5,London,NW9 0PR,-0.262968,51.58676
620cd576aa28c13b79504148,Danny's Kiosk,4,London,NW10 4SP,-0.244799,51.5358371
620cd576aa28c13b7950414e,Dark Habit,4,London,NW6 6NU,-0.2063794,51.5367398
620cd576aa28c13b79504157,Dawood Brothers Supermarket Ltd,3,London,NW10 2RX,-0.237161,51.547879
620cd576aa28c13b7950415a,Day 1,4,London,NW9 0NH,-0.263371,51.588294
620cd576aa28c13b79504169,Deli Beira,5,London,NW10 2SJ,-0.232146,51.547021
620cd576aa28c13b7950416c,Delicias de Portugal,5,London,NW10 5NS,-0.229711,51.530969
620cd576aa28c13b7950416f,Delicious Cafe,AwaitingInspection,London,NW10 0DG,-0.257997,51.56274
620cd576aa28c13b79504178,Delight,5,London,NW10 0AD,-0.251141,51.560155
620cd576aa28c13b7950417e,Dempsey's Cafe,5,London,NW10 2QG,-0.225238,51.547753
620cd576aa28c13b795041b7,DOLLIS HILL FOOD LTD,5,London,NW10 1NU,-0.2381089925766,51.5528373718262
620cd576aa28c13b795041ba,Dollis Hill Greengrocer,5,London,NW10 1NU,-0.238109,51.552839
620cd576aa28c13b795041bd,Dollis Hill Supermarket,5,London,NW2 6EG,-0.230604,51.5649848
620cd576aa28c13b795041c0,Dollmeads Pharmacy,Exempt,London,NW10 3ND,-0.21854,51.533875
620cd576aa28c13b795041c3,Dolly's Newsagent,4,London,NW10 9TU,-0.249317,51.54718
620cd576aa28c13b795041cc,Domino's Pizza,5,London,NW10 2SU,-0.227914,51.547182
620cd576aa28c13b795041d5,Doppio,4,London,NW10 4LX,-0.2488082,51.536949
620cd576aa28c13b795041e4,Dracula Restaurant,5,London,NW10 4TR,-0.243568,51.53544
620cd576aa28c13b795041ea,Dubison Pharmacy,Exempt,London,NW10 9NH,-0.25017,51.547129
620cd576aa28c13b795041ed,Dudden Hill Centre,5,London,NW10 2ET,-0.239501,51.54965
620cd576aa28c13b795041f0,Duniya,1,London,NW10 4TD,-0.240915,51.53317
620cd576aa28c13b795041f3,Duniya Events,AwaitingInspection,London,NW10 4TE,-0.2408474,51.5336107
620cd576aa28c13b795041f9,Dylan's,5,London,NW10 9NH,-0.25017,51.547129
620cd576aa28c13b79504205,Earl Derby,5,London,NW6 7HU,-0.196787,51.540701
620cd576aa28c13b79504208,Early's Cafe,4,London,NW2 3HP,-0.21728,51.558001
620cd576aa28c13b79504217,Eat Sushi,2,London,NW10 5RX,-0.219531,51.53398
620cd576aa28c13b79504220,Ecowas Mini Market,0,London,NW9 8RS,-0.262582,51.564677
620cd576aa28c13b79504223,Eders Voice-Community Centre,5,London,NW10 5TN,-0.222761,51.530999
620cd576aa28c13b79504226,Edgar's Pharmacy,Exempt,London,NW10 2NY,-0.237558,51.548433
620cd576aa28c13b79504229,Edwards Bakery,3,London,NW10 2RX,-0.237161,51.547879
620cd576aa28c13b79504232,Eggless Cake Box,4,London,NW10 8SE,-0.249995,51.538161
620cd576aa28c13b79504244,Ellas Cafe,5,London,NW10 2PJ,-0.233153,51.547449
620cd576aa28c13b79504250,Emmanuels Carribean Takeaway,5,London,NW10 2RY,-0.236065,51.547503
620cd576aa28c13b79504259,Espresso,4,London,NW10 5RT,-0.22025,51.534009
620cd576aa28c13b7950425c,Essentials,5,London,NW9 8JB,-0.263082,51.579208
620cd576aa28c13b79504262,Ethno Restaurant,4,London,NW2 3JG,-0.21374499797821,51.5550689697266
620cd576aa28c13b79504268,Euro Food & Wine,5,London,NW2 3HP,-0.21728,51.558001
620cd576aa28c13b79504271,Euro Mart Food & Wine,3,London,NW10 2NX,-0.236777,51.548098
620cd576aa28c13b79504274,Euro Supermarket,5,London,NW10 5HD,-0.22622999548912,51.5356025695801
620cd576aa28c13b79504277,Europe Cafe,5,London,NW10 9NP,-0.24835,51.547948
620cd576aa28c13b7950427d,Euro's,5,London,NW10 2EY,-0.238155,51.548658
620cd576aa28c13b79504280,Ever Rose Express,4,London,NW2 3HS,-0.21660900115967,51.5574607849121
620cd576aa28c13b7950428c,Fair Deal,3,London,NW2 6NX,-0.21874,51.559039
620cd576aa28c13b795042a4,Farmhouse Pizza,4,London,NW9 8UG,-0.263457,51.583017
620cd576aa28c13b795042ad,Favourite Cakes M&D Ltd,5,London,NW9 8UG,-0.263456,51.583017
620cd576aa28c13b795042b0,Favourite Chicken and Ribs,4,London,NW6 6HY,-0.193282,51.537428
620cd576aa28c13b795042b6,Feel Good Caribbean Take Away (unit 600),5,London,NW10 7QL,-0.272775,51.530244
620cd576aa28c13b795042b9,Fine Foods,5,London,NW10 4JH,-0.244946,51.536719
620cd576aa28c13b795042bc,Finezja/Family Restaurant,5,London,NW10 0AA,-0.24932,51.559121
620cd576aa28c13b795042bf,Fiqi Shop & Halal Meat,2,London,NW10 4TR,-0.243568,51.53544
620cd576aa28c13b795042c5,Firezza,5,London,NW2 4RA,-0.222133,51.548237
620cd576aa28c13b795042dd,Fish and Chips,4,London,NW10 2PU,-0.2287,51.547374
620cd576aa28c13b795042e0,Fish Bargain Supermarket,4,London,NW10 4AG,-0.252531,51.539719
620cd576aa28c13b795042e3,Fish N Grill,5,London,NW9 8LU,-0.262121,51.574895
620cd576aa28c13b795042f5,Flavon International Limited,5,London,NW10 1QR,-0.252673,51.560079
620cd576aa28c13b795042fb,Flavourz Africana,4,London,NW10 4AB,-0.2490743,51.5379062
620cd576aa28c13b795042fe,Flynns,1,London,NW10 2SL,-0.230116,51.546919
620cd576aa28c13b79504301,FM Cosmetics UK,4,London,NW10 0DG,-0.2585561,51.5629925
620cd576aa28c13b7950430a,Food & Wine,5,London,NW10 4JD,-0.24138,51.537214
620cd576aa28c13b79504319,Food 4 You,5,London,NW9 0BY,-0.265409,51.584421
620cd576aa28c13b7950431c,Food And Wine Harrow Road Convenience Store,5,London,NW10 5NJ,-0.233953,51.532391
620cd576aa28c13b7950431f,Food and Wine Ltd,5,London,NW10 0AA,-0.24932,51.559121
